[
    {
        "id": "internal_5b4384d4ea66b3788f93436cef7145f5",
        "label": "Chandigarh",
        "below_label": "Punjab, India",
        "location": "Sector 22",
        "city": "Chandigarh",
        "state": "Punjab",
        "country": "India",
        "latitude": 30.728092,
        "longitude": 76.7784,
        "source": "internal",
        "matched_field": "city"
    },
    {
        "id": "internal_3a7b3dfbb6314ad2571c873c7c440c2e",
        "label": "Bhopal",
        "below_label": "MP, India",
        "location": "Indian Subcontinent, MP, India",
        "city": "Bhopal",
        "state": "MP",
        "country": "India",
        "latitude": 22.20775032,
        "longitude": 76.97020721,
        "source": "internal",
        "matched_field": "city"
    },
    {
        "id": "internal_fb00ed02d4f6f005604d4f42e78d1425",
        "label": "Warisan",
        "below_label": "Warisan, Dubai",
        "location": "Warisan, Dubai, United Arab Emirates",
        "city": "Warisan",
        "state": "Warisan",
        "country": "Dubai",
        "latitude": 25.1638298,
        "longitude": 55.40987015,
        "source": "internal",
        "matched_field": "city"
    },
    {
        "id": "internal_f8eaf1078a2bfb9d9f9c19901d55bcbb",
        "label": "Festival City",
        "below_label": "UAE, Dubai",
        "location": "Festival City",
        "city": "Festival City",
        "state": "UAE",
        "country": "Dubai",
        "latitude": 25.22176933,
        "longitude": 55.35733032,
        "source": "internal",
        "matched_field": "city"
    },
    {
        "id": "internal_2671139ebe70e01a8bdf9c6014af93e5",
        "label": "Panchkula",
        "below_label": "HR, India",
        "location": "Panchkula",
        "city": "Panchkula",
        "state": "HR",
        "country": "India",
        "latitude": 30.682022,
        "longitude": 76.962571,
        "source": "internal",
        "matched_field": "city"
    },
    {
        "id": "internal_bd255922a834548571fa229a1288e49a",
        "label": "Kangra",
        "below_label": "Himachal Pradesh, India",
        "location": "Kangra Fort",
        "city": "Kangra",
        "state": "Himachal Pradesh",
        "country": "India",
        "latitude": 32.101564,
        "longitude": 76.273209,
        "source": "internal",
        "matched_field": "city"
    },
    {
        "id": "internal_40637ecad111222fb77b10f555ff4fcb",
        "label": "Shimla",
        "below_label": "Himachal Pradesh, India",
        "location": "Lakkad Bazar",
        "city": "Shimla",
        "state": "Himachal Pradesh",
        "country": "India",
        "latitude": 31.103142,
        "longitude": 77.171449,
        "source": "internal",
        "matched_field": "city"
    },
    {
        "id": "internal_3da4e234297625fface4c9213323a77c",
        "label": "T\u00e9touan",
        "below_label": "HG, Indonesia",
        "location": "Kazakhstan",
        "city": "T\u00e9touan",
        "state": "HG",
        "country": "Indonesia",
        "latitude": 48.261812,
        "longitude": 68.958961,
        "source": "internal",
        "matched_field": "city"
    },
    {
        "id": "internal_0db1f20256c903ffe3b8cfbc5368702a",
        "label": "Alexandra",
        "below_label": "New Zealand",
        "location": "Aerodrome OT",
        "city": "Alexandra",
        "state": null,
        "country": "New Zealand",
        "latitude": -45.213163,
        "longitude": 169.370287,
        "source": "internal",
        "matched_field": "city"
    },
    {
        "id": "internal_18d2b716c19e1be33117ff828486fdb4",
        "label": "Festival City",
        "below_label": "Dubai, UAE",
        "location": "Fare Ground",
        "city": "Festival City",
        "state": "Dubai",
        "country": "UAE",
        "latitude": 25.22176933,
        "longitude": 55.35733032,
        "source": "internal",
        "matched_field": "city"
    },
    {
        "id": "internal_a86c14ae36beec3715b44bea091d3f5f",
        "label": "Dharamshala",
        "below_label": "Himachal Pradesh, India",
        "location": "Cafe Coffee Day",
        "city": "Dharamshala",
        "state": "Himachal Pradesh",
        "country": "India",
        "latitude": 32.2120285,
        "longitude": 76.3155868,
        "source": "internal",
        "matched_field": "city"
    },
    {
        "id": "internal_3d92f84c385e1d9ef6edc6ac04c5ccc8",
        "label": "Kulu",
        "below_label": "Himachal Pradesh, India",
        "location": "Vijay Clinic, HP, India",
        "city": "Kulu",
        "state": "Himachal Pradesh",
        "country": "India",
        "latitude": 31.0870016,
        "longitude": 77.16864,
        "source": "internal",
        "matched_field": "city"
    },
    {
        "id": "internal_2915c6d3f3b2f44232af16a8c4c1fa6f",
        "label": "City of Corning",
        "below_label": "New York, United States",
        "location": "Corning Community YMCA, Riverside Walk, City of Corning, NY 14831, United States of America",
        "city": "City of Corning",
        "state": "New York",
        "country": "United States",
        "latitude": 42.148537,
        "longitude": -77.05447,
        "source": "internal",
        "matched_field": "city"
    },
    {
        "id": "internal_3e567c6b5a2f1d1f2ffb8976e6fe991b",
        "label": "Shogh",
        "below_label": "Himachal Pradesh, India",
        "location": "Bhuntar Adda",
        "city": "Shogh",
        "state": "Himachal Pradesh",
        "country": "India",
        "latitude": 31.8734336,
        "longitude": 77.1588096,
        "source": "internal",
        "matched_field": "city"
    },
    {
        "id": "internal_8994325dc56f869e7cfdf848b1ddfbbe",
        "label": "Shoghi",
        "below_label": "Himachal Pradesh, India",
        "location": "Police Station",
        "city": "Shoghi",
        "state": "Himachal Pradesh",
        "country": "India",
        "latitude": 31.039036,
        "longitude": 77.124748,
        "source": "internal",
        "matched_field": "city"
    },
    {
        "id": "internal_af5604b6759e3fd86b7570c4f4fdeffb",
        "label": "Kashipur",
        "below_label": "Uttarakhand, India",
        "location": "Chota Kashi",
        "city": "Kashipur",
        "state": "Uttarakhand",
        "country": "India",
        "latitude": 29.211844,
        "longitude": 78.966288,
        "source": "internal",
        "matched_field": "city"
    },
    {
        "id": "internal_f7f80a56ee83a6a0638310e4d7a7f292",
        "label": "Una",
        "below_label": "Himachal Pradesh, India",
        "location": "Rakkar",
        "city": "Una",
        "state": "Himachal Pradesh",
        "country": "India",
        "latitude": 31.4671104,
        "longitude": 76.2871808,
        "source": "internal",
        "matched_field": "city"
    },
    {
        "id": "internal_d28680ae65bf5dddb832c9c6d59f0c60",
        "label": "Dharamsala",
        "below_label": "Himachal Pradesh, India",
        "location": "Kotwali Bazar",
        "city": "Dharamsala",
        "state": "Himachal Pradesh",
        "country": "India",
        "latitude": 32.219191,
        "longitude": 76.318545,
        "source": "internal",
        "matched_field": "city"
    },
    {
        "id": "internal_469d98ffb5126fa33dbdb8a1cb97acc7",
        "label": "Marrakesh",
        "below_label": "Marrakesh-Safi, Morocco",
        "location": "Marrakesh Menara Airport",
        "city": "Marrakesh",
        "state": "Marrakesh-Safi",
        "country": "Morocco",
        "latitude": 31.601748,
        "longitude": -8.025711,
        "source": "internal",
        "matched_field": "city"
    },
    {
        "id": "internal_99a563d5a81eceb926101817510473fd",
        "label": "Dalhousie",
        "below_label": "Himachal Pradesh, India",
        "location": "test",
        "city": "Dalhousie",
        "state": "Himachal Pradesh",
        "country": "India",
        "latitude": 32.538739,
        "longitude": 75.970998,
        "source": "internal",
        "matched_field": "city"
    },
    {
        "id": "internal_6a212d27e0856c611cbfc38607e59b5a",
        "label": "New York",
        "below_label": "New York, United States",
        "location": "123 William Street",
        "city": "New York",
        "state": "New York",
        "country": "United States",
        "latitude": 40.709367,
        "longitude": -74.007108,
        "source": "internal",
        "matched_field": "city"
    },
    {
        "id": "internal_55ccc21675259314a7dcf8fce4a80111",
        "label": "Mandi",
        "below_label": "Himachal Pradesh, India",
        "location": "Test",
        "city": "Mandi",
        "state": "Himachal Pradesh",
        "country": "India",
        "latitude": 31.7087153,
        "longitude": 76.9320104,
        "source": "internal",
        "matched_field": "city"
    },
    {
        "id": "internal_93825aa8e2e457c3c36a5cf114f18417",
        "label": "Tangier",
        "below_label": "Tangier-T\u00e9touan-Al Hoceima, Morocco",
        "location": "Tangier",
        "city": "Tangier",
        "state": "Tangier-T\u00e9touan-Al Hoceima",
        "country": "Morocco",
        "latitude": 35.759465,
        "longitude": -5.833954,
        "source": "internal",
        "matched_field": "city"
    },
    {
        "id": "internal_edd4decbb132ec42d158204c8924e495",
        "label": "Tangier",
        "below_label": "Tangier, Morocco",
        "location": "Street 2202",
        "city": "Tangier",
        "state": "Tangier",
        "country": "Morocco",
        "latitude": 35.759465,
        "longitude": -5.833954,
        "source": "internal",
        "matched_field": "city"
    },
    {
        "id": "internal_df240a9f6ccee717214dbfdabf9fdfe1",
        "label": "Tangier",
        "below_label": "Morocco",
        "location": "Street 619",
        "city": "Tangier",
        "state": null,
        "country": "Morocco",
        "latitude": 35.759465,
        "longitude": -5.833954,
        "source": "internal",
        "matched_field": "city"
    },
    {
        "id": "internal_57eb497769f802668280088711faa6a1",
        "label": "Thane",
        "below_label": "India",
        "location": "SDFR",
        "city": "Thane",
        "state": "",
        "country": "India",
        "latitude": 19.21091,
        "longitude": 72.960789,
        "source": "internal",
        "matched_field": "city"
    },
    {
        "id": "internal_f498f73034b8d2ed15d06dd307eb8fa3",
        "label": "asd",
        "below_label": "United Kingdom",
        "location": "Marshall Road",
        "city": "asd",
        "state": null,
        "country": "United Kingdom",
        "latitude": 51.555896,
        "longitude": -0.009331,
        "source": "internal",
        "matched_field": "city"
    },
    {
        "id": "internal_ae0a2b623041078a7dc215319f48ac1a",
        "label": "Barneveld",
        "below_label": "Netherlands",
        "location": "123D Thorbeckelaan",
        "city": "Barneveld",
        "state": null,
        "country": "Netherlands",
        "latitude": 52.148913,
        "longitude": 5.566433,
        "source": "internal",
        "matched_field": "city"
    },
    {
        "id": "internal_3da3df17ef8c355411ba8efc26a892fb",
        "label": "sds",
        "below_label": "United Kingdom",
        "location": "East Street",
        "city": "sds",
        "state": null,
        "country": "United Kingdom",
        "latitude": 51.443957,
        "longitude": -2.595176,
        "source": "internal",
        "matched_field": "city"
    },
    {
        "id": "internal_245eefffcc242562c0e099f3c3688d3d",
        "label": "Fderik",
        "below_label": "Mauritania",
        "location": "Fderik",
        "city": "Fderik",
        "state": "",
        "country": "Mauritania",
        "latitude": 22.678681,
        "longitude": -12.710639,
        "source": "internal",
        "matched_field": "city"
    },
    {
        "id": "internal_c3613fe7619297b475ffeeab4ef8ec88",
        "label": "Marrakech",
        "below_label": "Marrakech, Morocco",
        "location": "124 Example St, Sample City",
        "city": "Marrakech",
        "state": "Marrakech",
        "country": "Morocco",
        "latitude": 35.052235,
        "longitude": -117.243683,
        "source": "internal",
        "matched_field": "city"
    },
    {
        "id": "internal_373fb8cc69261b7d83a4fd05c2234477",
        "label": "Sample City",
        "below_label": "CA, US",
        "location": "125 Example St, Sample City",
        "city": "Sample City",
        "state": "CA",
        "country": "US",
        "latitude": 36.052235,
        "longitude": -116.243683,
        "source": "internal",
        "matched_field": "city"
    },
    {
        "id": "internal_7f0cb5bfa0728148e283d895019eac61",
        "label": "Lanka",
        "below_label": "Sri Lanka",
        "location": "Sr\u00ed Lanka",
        "city": "Lanka",
        "state": "",
        "country": "Sri Lanka",
        "latitude": 7.5,
        "longitude": 80.75,
        "source": "internal",
        "matched_field": "city"
    },
    {
        "id": "internal_f4d0e5e4b317d9eb14231738c477e652",
        "label": "Kaza",
        "below_label": "India",
        "location": "Kaza",
        "city": "Kaza",
        "state": null,
        "country": "India",
        "latitude": 32.227599,
        "longitude": 78.07099,
        "source": "internal",
        "matched_field": "city"
    },
    {
        "id": "internal_391a3941aea3c2a27c7baa88e0c8a35b",
        "label": "Gaggal",
        "below_label": "Himachal Pradesh, India",
        "location": "National Highway 154",
        "city": "Gaggal",
        "state": "Himachal Pradesh",
        "country": "India",
        "latitude": 32.165,
        "longitude": 76.260145,
        "source": "internal",
        "matched_field": "city"
    },
    {
        "id": "internal_23e5af178e6df7cfeb0d8132bef20273",
        "label": "Marrakech",
        "below_label": "Tangier, Morocco",
        "location": "Street 650",
        "city": "Marrakech",
        "state": "Tangier",
        "country": "Morocco",
        "latitude": 40.709171,
        "longitude": -74.006952,
        "source": "internal",
        "matched_field": "city"
    },
    {
        "id": "gm_53981",
        "label": "Tirana Airport",
        "below_label": "Tirana, 1053",
        "location": "Tirana Airport",
        "city": "Tirana",
        "state": "",
        "country": "Albania",
        "latitude": 41.4192778,
        "longitude": 19.712083333333332,
        "source": "greenmotion",
        "matched_field": "location",
        "greenmotion_location_id": "53981"
    },
    {
        "id": "gm_56725",
        "label": "Durres Port",
        "below_label": "Tirana, 2001",
        "location": "Durres Port",
        "city": "Tirana",
        "state": "",
        "country": "Albania",
        "latitude": 41.31758992448847,
        "longitude": 19.454257762470032,
        "source": "greenmotion",
        "matched_field": "location",
        "greenmotion_location_id": "56725"
    },
    {
        "id": "gm_57376",
        "label": "Saranda Port",
        "below_label": "Sarande, 9700",
        "location": "Saranda Port",
        "city": "Sarande",
        "state": "",
        "country": "Albania",
        "latitude": 39.87171024635132,
        "longitude": 20.002591657790184,
        "source": "greenmotion",
        "matched_field": "location",
        "greenmotion_location_id": "57376"
    },
    {
        "id": "gm_57374",
        "label": "Shkodra Downtown",
        "below_label": "Shkoder, 4001",
        "location": "Shkodra Downtown",
        "city": "Shkoder",
        "state": "",
        "country": "Albania",
        "latitude": 42.06598218479618,
        "longitude": 19.510497530005082,
        "source": "greenmotion",
        "matched_field": "location",
        "greenmotion_location_id": "57374"
    },
    {
        "id": "gm_56722",
        "label": "Tirana Downtown",
        "below_label": "Tirana, 1057",
        "location": "Tirana Downtown",
        "city": "Tirana",
        "state": "",
        "country": "Albania",
        "latitude": 41.335330596956915,
        "longitude": 19.815760369723435,
        "source": "greenmotion",
        "matched_field": "location",
        "greenmotion_location_id": "56722"
    },
    {
        "id": "gm_61216",
        "label": "St John's International Airport",
        "below_label": "St John's",
        "location": "St John's International Airport",
        "city": "St John's",
        "state": "",
        "country": "Antigua and Barbuda",
        "latitude": 17.14167109215906,
        "longitude": -61.790518073456944,
        "source": "greenmotion",
        "matched_field": "location",
        "greenmotion_location_id": "61216"
    },
    {
        "id": "gm_61213",
        "label": "Belmont Complex",
        "below_label": "St John's",
        "location": "Belmont Complex",
        "city": "St John's",
        "state": "",
        "country": "Antigua and Barbuda",
        "latitude": 17.09601875610999,
        "longitude": -61.81757055038411,
        "source": "greenmotion",
        "matched_field": "location",
        "greenmotion_location_id": "61213"
    },
    {
        "id": "gm_61312",
        "label": "Jujuy Airport",
        "below_label": "JUJUY, Y4610",
        "location": "Jujuy Airport",
        "city": "JUJUY",
        "state": "",
        "country": "Argentina",
        "latitude": -24.385617578568016,
        "longitude": -65.09395712168337,
        "source": "greenmotion",
        "matched_field": "location",
        "greenmotion_location_id": "61312"
    },
    {
        "id": "gm_61409",
        "label": "Aeropuerto Internacional General Martin Miguel de Guemes",
        "below_label": "Salta, A4400",
        "location": "Aeropuerto Internacional General Martin Miguel de Guemes",
        "city": "Salta",
        "state": "",
        "country": "Argentina",
        "latitude": -24.84438969642992,
        "longitude": -65.47851806911557,
        "source": "greenmotion",
        "matched_field": "location",
        "greenmotion_location_id": "61409"
    },
    {
        "id": "gm_61313",
        "label": "Salta Center Office",
        "below_label": "SALTA, 4400",
        "location": "Salta Center Office",
        "city": "SALTA",
        "state": "",
        "country": "Argentina",
        "latitude": -24.80061957191467,
        "longitude": -65.40045743077224,
        "source": "greenmotion",
        "matched_field": "location",
        "greenmotion_location_id": "61313"
    },
    {
        "id": "gm_61348",
        "label": "Yerevan Airport",
        "below_label": "Yerevan, 0042",
        "location": "Yerevan Airport",
        "city": "Yerevan",
        "state": "",
        "country": "Armenia",
        "latitude": 40.1493854946256,
        "longitude": 44.39882009652637,
        "source": "greenmotion",
        "matched_field": "location",
        "greenmotion_location_id": "61348"
    },
    {
        "id": "gm_61436",
        "label": "Darwin Airport",
        "below_label": "Nightcliff, Northern Territory, 0810",
        "location": "Darwin Airport",
        "city": "Nightcliff",
        "state": "Northern Territory",
        "country": "Australia",
        "latitude": -12.38763,
        "longitude": 130.85197,
        "source": "greenmotion",
        "matched_field": "location",
        "greenmotion_location_id": "61436"
    },
    {
        "id": "gm_60091",
        "label": "Sydney Airport",
        "below_label": "Sydney, New South Wales, 2020",
        "location": "Sydney Airport",
        "city": "Sydney",
        "state": "New South Wales",
        "country": "Australia",
        "latitude": -33.92683,
        "longitude": 151.18797,
        "source": "greenmotion",
        "matched_field": "location",
        "greenmotion_location_id": "60091"
    },
    {
        "id": "gm_60637",
        "label": "Ballarat Downtown",
        "below_label": "Ballarat, Victoria, 3352",
        "location": "Ballarat Downtown",
        "city": "Ballarat",
        "state": "Victoria",
        "country": "Australia",
        "latitude": -37.56270042396447,
        "longitude": 143.93165068742826,
        "source": "greenmotion",
        "matched_field": "location",
        "greenmotion_location_id": "60637"
    },
    {
        "id": "gm_60707",
        "label": "Coogee Beach",
        "below_label": "Coogee, NSW, 2034",
        "location": "Coogee Beach",
        "city": "Coogee",
        "state": "NSW",
        "country": "Australia",
        "latitude": -33.922508,
        "longitude": 151.256073,
        "source": "greenmotion",
        "matched_field": "location",
        "greenmotion_location_id": "60707"
    },
    {
        "id": "gm_61433",
        "label": "Sydney CBD Downtown",
        "below_label": "Sydney, New South Wales, 2000",
        "location": "Sydney CBD Downtown",
        "city": "Sydney",
        "state": "New South Wales",
        "country": "Australia",
        "latitude": -33.8741,
        "longitude": 151.20426,
        "source": "greenmotion",
        "matched_field": "location",
        "greenmotion_location_id": "61433"
    },
    {
        "id": "gm_61435",
        "label": "Sydney Marrickville Downtown",
        "below_label": "Marrickville, New South Wales, 2204",
        "location": "Sydney Marrickville Downtown",
        "city": "Marrickville",
        "state": "New South Wales",
        "country": "Australia",
        "latitude": -33.90446,
        "longitude": 151.16513,
        "source": "greenmotion",
        "matched_field": "location",
        "greenmotion_location_id": "61435"
    },
    {
        "id": "gm_58366",
        "label": "Vienna International Airport",
        "below_label": "Fischamend, 2320",
        "location": "Vienna International Airport",
        "city": "Fischamend",
        "state": "",
        "country": "Austria",
        "latitude": 48.12512,
        "longitude": 16.58926,
        "source": "greenmotion",
        "matched_field": "location",
        "greenmotion_location_id": "58366"
    },
    {
        "id": "gm_60599",
        "label": "Vienna Central Train Station",
        "below_label": "Vienna, 1100",
        "location": "Vienna Central Train Station",
        "city": "Vienna",
        "state": "",
        "country": "Austria",
        "latitude": 48.185261,
        "longitude": 16.376876,
        "source": "greenmotion",
        "matched_field": "location",
        "greenmotion_location_id": "60599"
    },
    {
        "id": "gm_61672",
        "label": "Vienna Downtown",
        "below_label": "Wien, 1030",
        "location": "Vienna Downtown",
        "city": "Wien",
        "state": "",
        "country": "Austria",
        "latitude": 48.186549146006215,
        "longitude": 16.401483868147103,
        "source": "greenmotion",
        "matched_field": "location",
        "greenmotion_location_id": "61672"
    },
    {
        "id": "gm_61346",
        "label": "Baku International Airport",
        "below_label": "Baku, AZ1109",
        "location": "Baku International Airport",
        "city": "Baku",
        "state": "",
        "country": "Azerbaijan",
        "latitude": 40.46515214363659,
        "longitude": 50.05201997083241,
        "source": "greenmotion",
        "matched_field": "location",
        "greenmotion_location_id": "61346"
    },
    {
        "id": "gm_61345",
        "label": "Baku Downtown",
        "below_label": "Baku, AZ1025",
        "location": "Baku Downtown",
        "city": "Baku",
        "state": "",
        "country": "Azerbaijan",
        "latitude": 40.38279744258945,
        "longitude": 49.87740087817644,
        "source": "greenmotion",
        "matched_field": "location",
        "greenmotion_location_id": "61345"
    },
    {
        "id": "gm_61024",
        "label": "Banja Luka Airport",
        "below_label": "Mahovljani, 78250",
        "location": "Banja Luka Airport",
        "city": "Mahovljani",
        "state": "",
        "country": "Bosnia and Herzegovina",
        "latitude": 44.9413986,
        "longitude": 17.2975006,
        "source": "greenmotion",
        "matched_field": "location",
        "greenmotion_location_id": "61024"
    },
    {
        "id": "gm_244",
        "label": "Sarajevo Airport",
        "below_label": "Sarajevo, -, 71000",
        "location": "Sarajevo Airport",
        "city": "Sarajevo",
        "state": "-",
        "country": "Bosnia and Herzegovina",
        "latitude": 43.826372,
        "longitude": 18.336896,
        "source": "greenmotion",
        "matched_field": "location",
        "greenmotion_location_id": "244"
    },
    {
        "id": "gm_284",
        "label": "Tuzla Airport",
        "below_label": "Tuzla, 75273",
        "location": "Tuzla Airport",
        "city": "Tuzla",
        "state": "",
        "country": "Bosnia and Herzegovina",
        "latitude": 44.458811,
        "longitude": 18.725338,
        "source": "greenmotion",
        "matched_field": "location",
        "greenmotion_location_id": "284"
    },
    {
        "id": "gm_61026",
        "label": "Banja Luka Downtown",
        "below_label": "Banja Luka, 78000",
        "location": "Banja Luka Downtown",
        "city": "Banja Luka",
        "state": "",
        "country": "Bosnia and Herzegovina",
        "latitude": 44.77879,
        "longitude": 17.19586,
        "source": "greenmotion",
        "matched_field": "location",
        "greenmotion_location_id": "61026"
    },
    {
        "id": "gm_243",
        "label": "Sarajevo Downtown",
        "below_label": "Sarajevo, -, 71000",
        "location": "Sarajevo Downtown",
        "city": "Sarajevo",
        "state": "-",
        "country": "Bosnia and Herzegovina",
        "latitude": 43.853985,
        "longitude": 18.387792,
        "source": "greenmotion",
        "matched_field": "location",
        "greenmotion_location_id": "243"
    },
    {
        "id": "gm_285",
        "label": "Tuzla Downtown",
        "below_label": "Tuzla, 75000",
        "location": "Tuzla Downtown",
        "city": "Tuzla",
        "state": "",
        "country": "Bosnia and Herzegovina",
        "latitude": 44.534338,
        "longitude": 18.692107,
        "source": "greenmotion",
        "matched_field": "location",
        "greenmotion_location_id": "285"
    },
    {
        "id": "gm_58848",
        "label": "Sofia Airport",
        "below_label": "Sofia, 1000",
        "location": "Sofia Airport",
        "city": "Sofia",
        "state": "",
        "country": "Bulgaria",
        "latitude": 42.6876763,
        "longitude": 23.4038537,
        "source": "greenmotion",
        "matched_field": "location",
        "greenmotion_location_id": "58848"
    },
    {
        "id": "gm_58897",
        "label": "Sofia Airport Terminal 2",
        "below_label": "Sofia, 1000",
        "location": "Sofia Airport Terminal 2",
        "city": "Sofia",
        "state": "",
        "country": "Bulgaria",
        "latitude": 42.6934317,
        "longitude": 23.4049346,
        "source": "greenmotion",
        "matched_field": "location",
        "greenmotion_location_id": "58897"
    },
    {
        "id": "gm_58847",
        "label": "Sofia Downtown",
        "below_label": "Sofia, 1000",
        "location": "Sofia Downtown",
        "city": "Sofia",
        "state": "",
        "country": "Bulgaria",
        "latitude": 42.698207,
        "longitude": 23.308482,
        "source": "greenmotion",
        "matched_field": "location",
        "greenmotion_location_id": "58847"
    },
    {
        "id": "gm_269",
        "label": "Toronto Airport",
        "below_label": "Mississauga, Ontario, L4T 1A8",
        "location": "Toronto Airport",
        "city": "Mississauga",
        "state": "Ontario",
        "country": "Canada",
        "latitude": 43.70998563672338,
        "longitude": -79.63625418455594,
        "source": "greenmotion",
        "matched_field": "location",
        "greenmotion_location_id": "269"
    },
    {
        "id": "gm_60633",
        "label": "Mississauga Downtown",
        "below_label": "Mississauga, Ontario, L4T 1A8",
        "location": "Mississauga Downtown",
        "city": "Mississauga",
        "state": "Ontario",
        "country": "Canada",
        "latitude": 43.70998563672338,
        "longitude": -79.63625418455594,
        "source": "greenmotion",
        "matched_field": "location",
        "greenmotion_location_id": "60633"
    },
    {
        "id": "gm_61668",
        "label": "North York Downtown",
        "below_label": "Markham (Thornhill), Markham (Thornhill), L3T 0C7",
        "location": "North York Downtown",
        "city": "Markham (Thornhill)",
        "state": "Markham (Thornhill)",
        "country": "Canada",
        "latitude": 43.80370597782273,
        "longitude": -79.41957380398756,
        "source": "greenmotion",
        "matched_field": "location",
        "greenmotion_location_id": "61668"
    },
    {
        "id": "gm_61647",
        "label": "Armenia Airport",
        "below_label": "Armenia, Armenia, 630002",
        "location": "Armenia Airport",
        "city": "Armenia",
        "state": "Armenia",
        "country": "Colombia",
        "latitude": 4.5286443871078985,
        "longitude": -75.6814049932528,
        "source": "greenmotion",
        "matched_field": "location",
        "greenmotion_location_id": "61647"
    },
    {
        "id": "gm_61595",
        "label": "Barranquilla Airport",
        "below_label": "Barranquilla, 083006",
        "location": "Barranquilla Airport",
        "city": "Barranquilla",
        "state": "",
        "country": "Colombia",
        "latitude": 10.889914934185853,
        "longitude": -74.77021140100642,
        "source": "greenmotion",
        "matched_field": "location",
        "greenmotion_location_id": "61595"
    },
    {
        "id": "gm_61598",
        "label": "Bogota Airport",
        "below_label": "Bogota, 111311",
        "location": "Bogota Airport",
        "city": "Bogota",
        "state": "",
        "country": "Colombia",
        "latitude": 4.686760819820806,
        "longitude": -74.12649553558238,
        "source": "greenmotion",
        "matched_field": "location",
        "greenmotion_location_id": "61598"
    },
    {
        "id": "gm_61630",
        "label": "Cali Airport",
        "below_label": "Cali",
        "location": "Cali Airport",
        "city": "Cali",
        "state": "",
        "country": "Colombia",
        "latitude": 3.534930042117121,
        "longitude": -76.39028597547708,
        "source": "greenmotion",
        "matched_field": "location",
        "greenmotion_location_id": "61630"
    },
    {
        "id": "gm_61597",
        "label": "Cartagena Airport",
        "below_label": "Cartagena, 13002",
        "location": "Cartagena Airport",
        "city": "Cartagena",
        "state": "",
        "country": "Colombia",
        "latitude": 10.443386676331725,
        "longitude": -75.51798361783887,
        "source": "greenmotion",
        "matched_field": "location",
        "greenmotion_location_id": "61597"
    },
    {
        "id": "gm_61600",
        "label": "Neiva Airport",
        "below_label": "Neiva, 410006",
        "location": "Neiva Airport",
        "city": "Neiva",
        "state": "",
        "country": "Colombia",
        "latitude": 2.9448491186944548,
        "longitude": -75.29178830003359,
        "source": "greenmotion",
        "matched_field": "location",
        "greenmotion_location_id": "61600"
    },
    {
        "id": "gm_61599",
        "label": "Pereira Airport",
        "below_label": "Pereira, 660002",
        "location": "Pereira Airport",
        "city": "Pereira",
        "state": "",
        "country": "Colombia",
        "latitude": 4.81586,
        "longitude": -75.73328,
        "source": "greenmotion",
        "matched_field": "location",
        "greenmotion_location_id": "61599"
    },
    {
        "id": "gm_61594",
        "label": "Rionegro Airport",
        "below_label": "Rionegro, 054040",
        "location": "Rionegro Airport",
        "city": "Rionegro",
        "state": "",
        "country": "Colombia",
        "latitude": 6.175144377362082,
        "longitude": -75.43608944798156,
        "source": "greenmotion",
        "matched_field": "location",
        "greenmotion_location_id": "61594"
    },
    {
        "id": "gm_61596",
        "label": "Santa Marta Airport",
        "below_label": "Santa Marta, 470006",
        "location": "Santa Marta Airport",
        "city": "Santa Marta",
        "state": "",
        "country": "Colombia",
        "latitude": 11.19848141973531,
        "longitude": -74.2256619043357,
        "source": "greenmotion",
        "matched_field": "location",
        "greenmotion_location_id": "61596"
    },
    {
        "id": "gm_61601",
        "label": "Bucaramanga Downtown",
        "below_label": "Bucaramanga, 680003",
        "location": "Bucaramanga Downtown",
        "city": "Bucaramanga",
        "state": "",
        "country": "Colombia",
        "latitude": 7.117266225818753,
        "longitude": -73.11061098922436,
        "source": "greenmotion",
        "matched_field": "location",
        "greenmotion_location_id": "61601"
    },
    {
        "id": "gm_61593",
        "label": "Medellin Downtown",
        "below_label": "Medellin, 050021",
        "location": "Medellin Downtown",
        "city": "Medellin",
        "state": "",
        "country": "Colombia",
        "latitude": 6.21015,
        "longitude": -75.57013928223623,
        "source": "greenmotion",
        "matched_field": "location",
        "greenmotion_location_id": "61593"
    },
    {
        "id": "gm_61411",
        "label": "Liberia Airport",
        "below_label": "Guardia,, Liberia, 350 10",
        "location": "Liberia Airport",
        "city": "Guardia,",
        "state": "Liberia",
        "country": "Costa Rica",
        "latitude": 10.572251453261012,
        "longitude": -85.58367145942069,
        "source": "greenmotion",
        "matched_field": "location",
        "greenmotion_location_id": "61411"
    },
    {
        "id": "gm_61410",
        "label": "San Jose Airport",
        "below_label": "Alajuela, 10110",
        "location": "San Jose Airport",
        "city": "Alajuela",
        "state": "",
        "country": "Costa Rica",
        "latitude": 10.003063102424242,
        "longitude": -84.2078272590781,
        "source": "greenmotion",
        "matched_field": "location",
        "greenmotion_location_id": "61410"
    },
    {
        "id": "gm_61412",
        "label": "San Jose downtown",
        "below_label": "San Jose, 10110",
        "location": "San Jose downtown",
        "city": "San Jose",
        "state": "",
        "country": "Costa Rica",
        "latitude": 9.926397339429098,
        "longitude": -84.09472761629712,
        "source": "greenmotion",
        "matched_field": "location",
        "greenmotion_location_id": "61412"
    },
    {
        "id": "gm_61324",
        "label": "Felix Houphouet Boigny International Airport",
        "below_label": "Abidjan",
        "location": "Felix Houphouet Boigny International Airport",
        "city": "Abidjan",
        "state": "",
        "country": "Ivory Coast",
        "latitude": 5.254322753312705,
        "longitude": -3.93240247832467,
        "source": "greenmotion",
        "matched_field": "location",
        "greenmotion_location_id": "61324"
    },
    {
        "id": "gm_61327",
        "label": "Abidjan Downtown",
        "below_label": "Abidjan, Abidjan",
        "location": "Abidjan Downtown",
        "city": "Abidjan",
        "state": "Abidjan",
        "country": "Ivory Coast",
        "latitude": 5.386466303157576,
        "longitude": -3.982680214329789,
        "source": "greenmotion",
        "matched_field": "location",
        "greenmotion_location_id": "61327"
    },
    {
        "id": "gm_246",
        "label": "Dubrovnik Airport",
        "below_label": "Dubrovnik, 20000",
        "location": "Dubrovnik Airport",
        "city": "Dubrovnik",
        "state": "",
        "country": "Croatia",
        "latitude": 42.559752,
        "longitude": 18.260932,
        "source": "greenmotion",
        "matched_field": "location",
        "greenmotion_location_id": "246"
    },
    {
        "id": "gm_297",
        "label": "Split Airport",
        "below_label": "Split, -, 21217",
        "location": "Split Airport",
        "city": "Split",
        "state": "-",
        "country": "Croatia",
        "latitude": 43.536693,
        "longitude": 16.299544,
        "source": "greenmotion",
        "matched_field": "location",
        "greenmotion_location_id": "297"
    },
    {
        "id": "gm_298",
        "label": "Zadar Airport",
        "below_label": "Zadar, -, 23222",
        "location": "Zadar Airport",
        "city": "Zadar",
        "state": "-",
        "country": "Croatia",
        "latitude": 44.107956,
        "longitude": 15.3417,
        "source": "greenmotion",
        "matched_field": "location",
        "greenmotion_location_id": "298"
    },
    {
        "id": "gm_248",
        "label": "Zagreb Airport",
        "below_label": "Petina, 10410",
        "location": "Zagreb Airport",
        "city": "Petina",
        "state": "",
        "country": "Croatia",
        "latitude": 45.759445,
        "longitude": 16.099119,
        "source": "greenmotion",
        "matched_field": "location",
        "greenmotion_location_id": "248"
    },
    {
        "id": "gm_61234",
        "label": "ACI Marina Dubrovnik",
        "below_label": "Dubrovnik, 20236",
        "location": "ACI Marina Dubrovnik",
        "city": "Dubrovnik",
        "state": "",
        "country": "Croatia",
        "latitude": 42.67119582593996,
        "longitude": 18.12565005816492,
        "source": "greenmotion",
        "matched_field": "location",
        "greenmotion_location_id": "61234"
    },
    {
        "id": "gm_61237",
        "label": "ACI Marina Korcula",
        "below_label": "Korcula, 20260",
        "location": "ACI Marina Korcula",
        "city": "Korcula",
        "state": "",
        "country": "Croatia",
        "latitude": 42.9588344016616,
        "longitude": 17.1357331797322,
        "source": "greenmotion",
        "matched_field": "location",
        "greenmotion_location_id": "61237"
    },
    {
        "id": "gm_61236",
        "label": "ACI Marina Slano",
        "below_label": "Slano, 20232",
        "location": "ACI Marina Slano",
        "city": "Slano",
        "state": "",
        "country": "Croatia",
        "latitude": 42.783510882042435,
        "longitude": 17.889398672708523,
        "source": "greenmotion",
        "matched_field": "location",
        "greenmotion_location_id": "61236"
    },
    {
        "id": "gm_245",
        "label": "Dubrovnik Downtown",
        "below_label": "Dubrovnik, -, 20000",
        "location": "Dubrovnik Downtown",
        "city": "Dubrovnik",
        "state": "-",
        "country": "Croatia",
        "latitude": 42.64688692933757,
        "longitude": 18.092126595878653,
        "source": "greenmotion",
        "matched_field": "location",
        "greenmotion_location_id": "245"
    },
    {
        "id": "gm_295",
        "label": "Samobor Downtown",
        "below_label": "Samobor, -, 10430",
        "location": "Samobor Downtown",
        "city": "Samobor",
        "state": "-",
        "country": "Croatia",
        "latitude": 45.796488,
        "longitude": 15.728981,
        "source": "greenmotion",
        "matched_field": "location",
        "greenmotion_location_id": "295"
    },
    {
        "id": "gm_312",
        "label": "Split Downtown",
        "below_label": "Split, 22203",
        "location": "Split Downtown",
        "city": "Split",
        "state": "",
        "country": "Croatia",
        "latitude": 43.506299,
        "longitude": 16.441773,
        "source": "greenmotion",
        "matched_field": "location",
        "greenmotion_location_id": "312"
    },
    {
        "id": "gm_247",
        "label": "Zagreb Downtown",
        "below_label": "Zagreb, -, 10000",
        "location": "Zagreb Downtown",
        "city": "Zagreb",
        "state": "-",
        "country": "Croatia",
        "latitude": 45.80367008736639,
        "longitude": 15.958229392163366,
        "source": "greenmotion",
        "matched_field": "location",
        "greenmotion_location_id": "247"
    },
    {
        "id": "gm_57804",
        "label": "Zagreb Jankomir",
        "below_label": "Zagreb, 10000",
        "location": "Zagreb Jankomir",
        "city": "Zagreb",
        "state": "",
        "country": "Croatia",
        "latitude": 45.79852460000001,
        "longitude": 15.858114699999987,
        "source": "greenmotion",
        "matched_field": "location",
        "greenmotion_location_id": "57804"
    },
    {
        "id": "gm_61209",
        "label": "Cura\u00e7ao International Airport",
        "below_label": "Willemstad",
        "location": "Cura\u00e7ao International Airport",
        "city": "Willemstad",
        "state": "",
        "country": "Curacao",
        "latitude": 12.110146454569318,
        "longitude": -68.89614879695263,
        "source": "greenmotion",
        "matched_field": "location",
        "greenmotion_location_id": "61209"
    },
    {
        "id": "gm_94",
        "label": "Larnaca Airport",
        "below_label": "Larnaca, -, 7020",
        "location": "Larnaca Airport",
        "city": "Larnaca",
        "state": "-",
        "country": "Cyprus",
        "latitude": 34.881083,
        "longitude": 33.583569,
        "source": "greenmotion",
        "matched_field": "location",
        "greenmotion_location_id": "94"
    },
    {
        "id": "gm_93",
        "label": "Paphos Airport",
        "below_label": "Paphos, -, 8507",
        "location": "Paphos Airport",
        "city": "Paphos",
        "state": "-",
        "country": "Cyprus",
        "latitude": 34.726491,
        "longitude": 32.514677,
        "source": "greenmotion",
        "matched_field": "location",
        "greenmotion_location_id": "93"
    },
    {
        "id": "gm_61335",
        "label": "Ayia Napa Downtown",
        "below_label": "Ayia Napa, Ayia Napa, 5330",
        "location": "Ayia Napa Downtown",
        "city": "Ayia Napa",
        "state": "Ayia Napa",
        "country": "Cyprus",
        "latitude": 34.9885917360585,
        "longitude": 34.0008411728794,
        "source": "greenmotion",
        "matched_field": "location",
        "greenmotion_location_id": "61335"
    },
    {
        "id": "gm_60775",
        "label": "Larnaca Downtown",
        "below_label": "Larnaca, 7020",
        "location": "Larnaca Downtown",
        "city": "Larnaca",
        "state": "",
        "country": "Cyprus",
        "latitude": 34.881083,
        "longitude": 33.583569,
        "source": "greenmotion",
        "matched_field": "location",
        "greenmotion_location_id": "60775"
    },
    {
        "id": "gm_60776",
        "label": "Limassol Downtown",
        "below_label": "Limassol, Limassol, 4040",
        "location": "Limassol Downtown",
        "city": "Limassol",
        "state": "Limassol",
        "country": "Cyprus",
        "latitude": 34.692858,
        "longitude": 33.081007,
        "source": "greenmotion",
        "matched_field": "location",
        "greenmotion_location_id": "60776"
    },
    {
        "id": "gm_338",
        "label": "Prague Airport",
        "below_label": "Prague, Prague, 161 00",
        "location": "Prague Airport",
        "city": "Prague",
        "state": "Prague",
        "country": "Czech Republic",
        "latitude": 50.1065,
        "longitude": 14.269666666666668,
        "source": "greenmotion",
        "matched_field": "location",
        "greenmotion_location_id": "338"
    },
    {
        "id": "gm_365",
        "label": "Prague Bus Station Florenc",
        "below_label": "Prague, Prague, 110 00",
        "location": "Prague Bus Station Florenc",
        "city": "Prague",
        "state": "Prague",
        "country": "Czech Republic",
        "latitude": 50.089739,
        "longitude": 14.437147,
        "source": "greenmotion",
        "matched_field": "location",
        "greenmotion_location_id": "365"
    },
    {
        "id": "gm_61694",
        "label": "Hillerod Downtown",
        "below_label": "Hillerod, 3400",
        "location": "Hillerod Downtown",
        "city": "Hillerod",
        "state": "",
        "country": "Denmark",
        "latitude": 55.93294498102992,
        "longitude": 12.274163410895257,
        "source": "greenmotion",
        "matched_field": "location",
        "greenmotion_location_id": "61694"
    },
    {
        "id": "gm_61644",
        "label": "Las Americas International Airport",
        "below_label": "Santo Domingo Este, Santo Domingo Este, 15700",
        "location": "Las Americas International Airport",
        "city": "Santo Domingo Este",
        "state": "Santo Domingo Este",
        "country": "Dominican Republic",
        "latitude": 18.43066189334448,
        "longitude": -69.67665346976094,
        "source": "greenmotion",
        "matched_field": "location",
        "greenmotion_location_id": "61644"
    },
    {
        "id": "gm_346",
        "label": "Punta Cana International Airport",
        "below_label": "Punta Cana, DR 23302",
        "location": "Punta Cana International Airport",
        "city": "Punta Cana",
        "state": "",
        "country": "Dominican Republic",
        "latitude": 18.6099925,
        "longitude": -68.3895382,
        "source": "greenmotion",
        "matched_field": "location",
        "greenmotion_location_id": "346"
    },
    {
        "id": "gm_61537",
        "label": "Cairo International Airport",
        "below_label": "Cairo, Cairo",
        "location": "Cairo International Airport",
        "city": "Cairo",
        "state": "Cairo",
        "country": "Egypt",
        "latitude": 30.127462724364893,
        "longitude": 31.40446347844616,
        "source": "greenmotion",
        "matched_field": "location",
        "greenmotion_location_id": "61537"
    },
    {
        "id": "gm_61540",
        "label": "Hurghada Airport",
        "below_label": "Hurghada, Hurghada",
        "location": "Hurghada Airport",
        "city": "Hurghada",
        "state": "Hurghada",
        "country": "Egypt",
        "latitude": 27.1804987,
        "longitude": 33.8049911,
        "source": "greenmotion",
        "matched_field": "location",
        "greenmotion_location_id": "61540"
    },
    {
        "id": "gm_61542",
        "label": "Luxor International Airport",
        "below_label": "Luxor, Luxor",
        "location": "Luxor International Airport",
        "city": "Luxor",
        "state": "Luxor",
        "country": "Egypt",
        "latitude": 25.6746923,
        "longitude": 32.6973626,
        "source": "greenmotion",
        "matched_field": "location",
        "greenmotion_location_id": "61542"
    },
    {
        "id": "gm_61543",
        "label": "Marsa Alam International Airport",
        "below_label": "Marsa Alam, Marsa Alam",
        "location": "Marsa Alam International Airport",
        "city": "Marsa Alam",
        "state": "Marsa Alam",
        "country": "Egypt",
        "latitude": 25.5550566,
        "longitude": 34.5861824,
        "source": "greenmotion",
        "matched_field": "location",
        "greenmotion_location_id": "61543"
    },
    {
        "id": "gm_61673",
        "label": "Sphinx International Airport",
        "below_label": "Giza, 11776",
        "location": "Sphinx International Airport",
        "city": "Giza",
        "state": "",
        "country": "Egypt",
        "latitude": 30.107808990753135,
        "longitude": 30.888289171681794,
        "source": "greenmotion",
        "matched_field": "location",
        "greenmotion_location_id": "61673"
    },
    {
        "id": "gm_61539",
        "label": "Borg Al Arab",
        "below_label": "Alexandria, Alexandria, 21934",
        "location": "Borg Al Arab",
        "city": "Alexandria",
        "state": "Alexandria",
        "country": "Egypt",
        "latitude": 30.9324146,
        "longitude": 29.6918503,
        "source": "greenmotion",
        "matched_field": "location",
        "greenmotion_location_id": "61539"
    },
    {
        "id": "gm_61538",
        "label": "Cairo Heliopolis",
        "below_label": "Heliopolis, Heliopolis",
        "location": "Cairo Heliopolis",
        "city": "Heliopolis",
        "state": "Heliopolis",
        "country": "Egypt",
        "latitude": 30.1050583,
        "longitude": 31.3785005,
        "source": "greenmotion",
        "matched_field": "location",
        "greenmotion_location_id": "61538"
    },
    {
        "id": "gm_61541",
        "label": "Hurghada Downtown",
        "below_label": "Hurghada, Hurghada, 84517",
        "location": "Hurghada Downtown",
        "city": "Hurghada",
        "state": "Hurghada",
        "country": "Egypt",
        "latitude": 27.212463515626492,
        "longitude": 33.84086859633732,
        "source": "greenmotion",
        "matched_field": "location",
        "greenmotion_location_id": "61541"
    },
    {
        "id": "gm_58189",
        "label": "Tallinn Airport",
        "below_label": "Tallinn, 11415",
        "location": "Tallinn Airport",
        "city": "Tallinn",
        "state": "",
        "country": "Estonia",
        "latitude": 59.420493,
        "longitude": 24.79857,
        "source": "greenmotion",
        "matched_field": "location",
        "greenmotion_location_id": "58189"
    },
    {
        "id": "gm_58190",
        "label": "Tallinn Bus Station",
        "below_label": "Tallinn, 10144",
        "location": "Tallinn Bus Station",
        "city": "Tallinn",
        "state": "",
        "country": "Estonia",
        "latitude": 59.4279905,
        "longitude": 24.772810800000002,
        "source": "greenmotion",
        "matched_field": "location",
        "greenmotion_location_id": "58190"
    },
    {
        "id": "gm_58192",
        "label": "Tallinn Downtown",
        "below_label": "Tallinn, 10114",
        "location": "Tallinn Downtown",
        "city": "Tallinn",
        "state": "",
        "country": "Estonia",
        "latitude": 59.432035,
        "longitude": 24.753206,
        "source": "greenmotion",
        "matched_field": "location",
        "greenmotion_location_id": "58192"
    },
    {
        "id": "gm_58191",
        "label": "Tallinn Sea Port",
        "below_label": "Tallinn, 10111",
        "location": "Tallinn Sea Port",
        "city": "Tallinn",
        "state": "",
        "country": "Estonia",
        "latitude": 59.443452,
        "longitude": 24.759904,
        "source": "greenmotion",
        "matched_field": "location",
        "greenmotion_location_id": "58191"
    },
    {
        "id": "gm_58203",
        "label": "Tallinn Train Station",
        "below_label": "Tallinn, 10133",
        "location": "Tallinn Train Station",
        "city": "Tallinn",
        "state": "",
        "country": "Estonia",
        "latitude": 59.4390696,
        "longitude": 24.736119499999973,
        "source": "greenmotion",
        "matched_field": "location",
        "greenmotion_location_id": "58203"
    },
    {
        "id": "gm_61632",
        "label": "Addis Ababa Bole International Airport",
        "below_label": "Addis Ababa, Addis Ababa",
        "location": "Addis Ababa Bole International Airport",
        "city": "Addis Ababa",
        "state": "Addis Ababa",
        "country": "Ethiopia",
        "latitude": 8.991907632196497,
        "longitude": 38.784642764417605,
        "source": "greenmotion",
        "matched_field": "location",
        "greenmotion_location_id": "61632"
    },
    {
        "id": "gm_321",
        "label": "Ivalo Airport",
        "below_label": "Inari, 98800",
        "location": "Ivalo Airport",
        "city": "Inari",
        "state": "",
        "country": "Finland",
        "latitude": 68.608233,
        "longitude": 27.403616,
        "source": "greenmotion",
        "matched_field": "location",
        "greenmotion_location_id": "321"
    },
    {
        "id": "gm_330",
        "label": "Kittila Airport",
        "below_label": "Kittila, 99100",
        "location": "Kittila Airport",
        "city": "Kittila",
        "state": "",
        "country": "Finland",
        "latitude": 67.6955833,
        "longitude": 24.85910555555556,
        "source": "greenmotion",
        "matched_field": "location",
        "greenmotion_location_id": "330"
    },
    {
        "id": "gm_60750",
        "label": "Oulu Airport",
        "below_label": "Oulu, 90410",
        "location": "Oulu Airport",
        "city": "Oulu",
        "state": "",
        "country": "Finland",
        "latitude": 64.928863,
        "longitude": 25.372482,
        "source": "greenmotion",
        "matched_field": "location",
        "greenmotion_location_id": "60750"
    },
    {
        "id": "gm_272",
        "label": "Rovaniemi Airport",
        "below_label": "Rovaniemi, 96100",
        "location": "Rovaniemi Airport",
        "city": "Rovaniemi",
        "state": "",
        "country": "Finland",
        "latitude": 66.563234,
        "longitude": 25.830089,
        "source": "greenmotion",
        "matched_field": "location",
        "greenmotion_location_id": "272"
    },
    {
        "id": "gm_270",
        "label": "Tampere Airport",
        "below_label": "Tampere, 33960",
        "location": "Tampere Airport",
        "city": "Tampere",
        "state": "",
        "country": "Finland",
        "latitude": 61.417444,
        "longitude": 23.60463,
        "source": "greenmotion",
        "matched_field": "location",
        "greenmotion_location_id": "270"
    },
    {
        "id": "gm_267",
        "label": "Helsinki Airport - Vantaa",
        "below_label": "Vantaa, 01530",
        "location": "Helsinki Airport - Vantaa",
        "city": "Vantaa",
        "state": "",
        "country": "Finland",
        "latitude": 60.31665655347501,
        "longitude": 24.965932207486542,
        "source": "greenmotion",
        "matched_field": "location",
        "greenmotion_location_id": "267"
    },
    {
        "id": "gm_60771",
        "label": "Helsinki Downtown - Hotel Valo",
        "below_label": "Helsinki, Helsinki, 00280",
        "location": "Helsinki Downtown - Hotel Valo",
        "city": "Helsinki",
        "state": "Helsinki",
        "country": "Finland",
        "latitude": 60.205729,
        "longitude": 24.899842,
        "source": "greenmotion",
        "matched_field": "location",
        "greenmotion_location_id": "60771"
    },
    {
        "id": "gm_60751",
        "label": "Oulu Railway Station",
        "below_label": "Oulu, 90130",
        "location": "Oulu Railway Station",
        "city": "Oulu",
        "state": "",
        "country": "Finland",
        "latitude": 65.011408,
        "longitude": 25.483778,
        "source": "greenmotion",
        "matched_field": "location",
        "greenmotion_location_id": "60751"
    },
    {
        "id": "gm_276",
        "label": "Rovaniemi Railway Station",
        "below_label": "Rovaniemi, 96100",
        "location": "Rovaniemi Railway Station",
        "city": "Rovaniemi",
        "state": "",
        "country": "Finland",
        "latitude": 66.4986077,
        "longitude": 25.7080713,
        "source": "greenmotion",
        "matched_field": "location",
        "greenmotion_location_id": "276"
    },
    {
        "id": "gm_61181",
        "label": "Batumi International Airport",
        "below_label": "Batumi, Georgia, 6000",
        "location": "Batumi International Airport",
        "city": "Batumi",
        "state": "Georgia",
        "country": "Georgia",
        "latitude": 41.60678,
        "longitude": 41.61085,
        "source": "greenmotion",
        "matched_field": "location",
        "greenmotion_location_id": "61181"
    },
    {
        "id": "gm_61180",
        "label": "Kutaisi International Airport",
        "below_label": "Kutaisi, Kutaisi, 4600",
        "location": "Kutaisi International Airport",
        "city": "Kutaisi",
        "state": "Kutaisi",
        "country": "Georgia",
        "latitude": 42.18207,
        "longitude": 42.4656,
        "source": "greenmotion",
        "matched_field": "location",
        "greenmotion_location_id": "61180"
    },
    {
        "id": "gm_61178",
        "label": "Tbilisi International Airport",
        "below_label": "Tbilisi, Georgia, 0158",
        "location": "Tbilisi International Airport",
        "city": "Tbilisi",
        "state": "Georgia",
        "country": "Georgia",
        "latitude": 41.669598519990025,
        "longitude": 44.96446608367497,
        "source": "greenmotion",
        "matched_field": "location",
        "greenmotion_location_id": "61178"
    },
    {
        "id": "gm_61179",
        "label": "Tbilisi Downtown",
        "below_label": "Tbilisi, Georgia, 0106",
        "location": "Tbilisi Downtown",
        "city": "Tbilisi",
        "state": "Georgia",
        "country": "Georgia",
        "latitude": 41.689650291720746,
        "longitude": 44.80940505166678,
        "source": "greenmotion",
        "matched_field": "location",
        "greenmotion_location_id": "61179"
    },
    {
        "id": "gm_61701",
        "label": "Dusseldorf Airport",
        "below_label": "Dusseldorf, 40472",
        "location": "Dusseldorf Airport",
        "city": "Dusseldorf",
        "state": "",
        "country": "Germany",
        "latitude": 51.286381394435175,
        "longitude": 6.802297025991776,
        "source": "greenmotion",
        "matched_field": "location",
        "greenmotion_location_id": "61701"
    },
    {
        "id": "gm_61627",
        "label": "Hamburg Airport",
        "below_label": "Hamburg, 22335",
        "location": "Hamburg Airport",
        "city": "Hamburg",
        "state": "",
        "country": "Germany",
        "latitude": 53.63106397342853,
        "longitude": 10.005727119920438,
        "source": "greenmotion",
        "matched_field": "location",
        "greenmotion_location_id": "61627"
    },
    {
        "id": "gm_143",
        "label": "Athens International Airport",
        "below_label": "Athens, 19003",
        "location": "Athens International Airport",
        "city": "Athens",
        "state": "",
        "country": "Greece",
        "latitude": 37.89269387532633,
        "longitude": 23.9198523064082,
        "source": "greenmotion",
        "matched_field": "location",
        "greenmotion_location_id": "143"
    },
    {
        "id": "gm_147",
        "label": "Corfu International Airport",
        "below_label": "Corfu, -, 49100",
        "location": "Corfu International Airport",
        "city": "Corfu",
        "state": "-",
        "country": "Greece",
        "latitude": 39.607867,
        "longitude": 19.914663,
        "source": "greenmotion",
        "matched_field": "location",
        "greenmotion_location_id": "147"
    },
    {
        "id": "gm_173",
        "label": "Crete - Chania Airport",
        "below_label": "Chania, Chania, 731 00",
        "location": "Crete - Chania Airport",
        "city": "Chania",
        "state": "Chania",
        "country": "Greece",
        "latitude": 35.540805,
        "longitude": 24.138685,
        "source": "greenmotion",
        "matched_field": "location",
        "greenmotion_location_id": "173"
    },
    {
        "id": "gm_171",
        "label": "Crete - Heraklion Airport",
        "below_label": "Heraklion, Heraklion, 71601",
        "location": "Crete - Heraklion Airport",
        "city": "Heraklion",
        "state": "Heraklion",
        "country": "Greece",
        "latitude": 35.336883,
        "longitude": 25.172922,
        "source": "greenmotion",
        "matched_field": "location",
        "greenmotion_location_id": "171"
    },
    {
        "id": "gm_375",
        "label": "Kalamata Airport",
        "below_label": "Kalamatas, Kalamatas, 241 50",
        "location": "Kalamata Airport",
        "city": "Kalamatas",
        "state": "Kalamatas",
        "country": "Greece",
        "latitude": 37.0549,
        "longitude": 22.0341,
        "source": "greenmotion",
        "matched_field": "location",
        "greenmotion_location_id": "375"
    },
    {
        "id": "gm_313",
        "label": "Kefalonia - Airport",
        "below_label": "Kefalonia, Kefalonia, 281 00",
        "location": "Kefalonia - Airport",
        "city": "Kefalonia",
        "state": "Kefalonia",
        "country": "Greece",
        "latitude": 38.1188,
        "longitude": 20.507225,
        "source": "greenmotion",
        "matched_field": "location",
        "greenmotion_location_id": "313"
    },
    {
        "id": "gm_307",
        "label": "Kos Airport",
        "below_label": "Antimachia, Antimachia, 853 02",
        "location": "Kos Airport",
        "city": "Antimachia",
        "state": "Antimachia",
        "country": "Greece",
        "latitude": 36.801541,
        "longitude": 27.090676,
        "source": "greenmotion",
        "matched_field": "location",
        "greenmotion_location_id": "307"
    },
    {
        "id": "gm_306",
        "label": "Mykonos Airport",
        "below_label": "Mykonos, Mykonos, 846 00",
        "location": "Mykonos Airport",
        "city": "Mykonos",
        "state": "Mykonos",
        "country": "Greece",
        "latitude": 37.430135,
        "longitude": 25.348635,
        "source": "greenmotion",
        "matched_field": "location",
        "greenmotion_location_id": "306"
    },
    {
        "id": "gm_61714",
        "label": "Naxos Airport",
        "below_label": "Chora Naxou, Naxos, Cyclades, PC 84300",
        "location": "Naxos Airport",
        "city": "Chora Naxou",
        "state": "Naxos, Cyclades",
        "country": "Greece",
        "latitude": 37.0990624,
        "longitude": 25.3768975,
        "source": "greenmotion",
        "matched_field": "location",
        "greenmotion_location_id": "61714"
    },
    {
        "id": "gm_61125",
        "label": "Paros Airport",
        "below_label": "Paros, 84400",
        "location": "Paros Airport",
        "city": "Paros",
        "state": "",
        "country": "Greece",
        "latitude": 37.010719,
        "longitude": 25.129832,
        "source": "greenmotion",
        "matched_field": "location",
        "greenmotion_location_id": "61125"
    },
    {
        "id": "gm_149",
        "label": "Preveza Aktion Lefkada Airport",
        "below_label": "Preveza, -, 300 02",
        "location": "Preveza Aktion Lefkada Airport",
        "city": "Preveza",
        "state": "-",
        "country": "Greece",
        "latitude": 38.931044,
        "longitude": 20.771713,
        "source": "greenmotion",
        "matched_field": "location",
        "greenmotion_location_id": "149"
    },
    {
        "id": "gm_250",
        "label": "Rhodes Airport",
        "below_label": "Rhodes, 851 00",
        "location": "Rhodes Airport",
        "city": "Rhodes",
        "state": "",
        "country": "Greece",
        "latitude": 36.382812,
        "longitude": 28.134166,
        "source": "greenmotion",
        "matched_field": "location",
        "greenmotion_location_id": "250"
    },
    {
        "id": "gm_332",
        "label": "Samos Airport",
        "below_label": "Samos, 831 00",
        "location": "Samos Airport",
        "city": "Samos",
        "state": "",
        "country": "Greece",
        "latitude": 37.690505,
        "longitude": 26.938236,
        "source": "greenmotion",
        "matched_field": "location",
        "greenmotion_location_id": "332"
    },
    {
        "id": "gm_61577",
        "label": "Santorini Airport",
        "below_label": "847 00",
        "location": "Santorini Airport",
        "city": "",
        "state": "",
        "country": "Greece",
        "latitude": 36.40050728377036,
        "longitude": 25.477683306533176,
        "source": "greenmotion",
        "matched_field": "location",
        "greenmotion_location_id": "61577"
    },
    {
        "id": "gm_381",
        "label": "Skiathos Airport",
        "below_label": "Skiathos, 370 02",
        "location": "Skiathos Airport",
        "city": "Skiathos",
        "state": "",
        "country": "Greece",
        "latitude": 39.176462,
        "longitude": 23.50046,
        "source": "greenmotion",
        "matched_field": "location",
        "greenmotion_location_id": "381"
    },
    {
        "id": "gm_144",
        "label": "Thessaloniki Airport",
        "below_label": "Thessaloniki, -, 570 01",
        "location": "Thessaloniki Airport",
        "city": "Thessaloniki",
        "state": "-",
        "country": "Greece",
        "latitude": 40.521912772365596,
        "longitude": 22.995170125494894,
        "source": "greenmotion",
        "matched_field": "location",
        "greenmotion_location_id": "144"
    },
    {
        "id": "gm_384",
        "label": "Volos Airport",
        "below_label": "N. Aghialos, 37400",
        "location": "Volos Airport",
        "city": "N. Aghialos",
        "state": "",
        "country": "Greece",
        "latitude": 39.219225,
        "longitude": 22.792245,
        "source": "greenmotion",
        "matched_field": "location",
        "greenmotion_location_id": "384"
    },
    {
        "id": "gm_161",
        "label": "Zakynthos Airport",
        "below_label": "Zakynthos, 291 00",
        "location": "Zakynthos Airport",
        "city": "Zakynthos",
        "state": "",
        "country": "Greece",
        "latitude": 37.75417,
        "longitude": 20.888564,
        "source": "greenmotion",
        "matched_field": "location",
        "greenmotion_location_id": "161"
    },
    {
        "id": "gm_56720",
        "label": "Athens 114 Leoforos Varis Koropiou",
        "below_label": "Athens, 19400",
        "location": "Athens 114 Leoforos Varis Koropiou",
        "city": "Athens",
        "state": "",
        "country": "Greece",
        "latitude": 37.871975,
        "longitude": 23.858832,
        "source": "greenmotion",
        "matched_field": "location",
        "greenmotion_location_id": "56720"
    },
    {
        "id": "gm_54748",
        "label": "Athens Downtown",
        "below_label": "Athens, Athens, 117 43",
        "location": "Athens Downtown",
        "city": "Athens",
        "state": "Athens",
        "country": "Greece",
        "latitude": 37.966844,
        "longitude": 23.729824,
        "source": "greenmotion",
        "matched_field": "location",
        "greenmotion_location_id": "54748"
    },
    {
        "id": "gm_186",
        "label": "Athens Koropi",
        "below_label": "Athens, -, 19400",
        "location": "Athens Koropi",
        "city": "Athens",
        "state": "-",
        "country": "Greece",
        "latitude": 37.871975,
        "longitude": 23.858832,
        "source": "greenmotion",
        "matched_field": "location",
        "greenmotion_location_id": "186"
    },
    {
        "id": "gm_54749",
        "label": "Athens Syngrou Avenue",
        "below_label": "Athens, Athens, 117 43",
        "location": "Athens Syngrou Avenue",
        "city": "Athens",
        "state": "Athens",
        "country": "Greece",
        "latitude": 37.966844,
        "longitude": 23.729824,
        "source": "greenmotion",
        "matched_field": "location",
        "greenmotion_location_id": "54749"
    },
    {
        "id": "gm_146",
        "label": "Corfu Downtown",
        "below_label": "Corfu, -, 49100",
        "location": "Corfu Downtown",
        "city": "Corfu",
        "state": "-",
        "country": "Greece",
        "latitude": 39.626253,
        "longitude": 19.903957,
        "source": "greenmotion",
        "matched_field": "location",
        "greenmotion_location_id": "146"
    },
    {
        "id": "gm_206",
        "label": "Corfu Port",
        "below_label": "Corfu, -, 49100",
        "location": "Corfu Port",
        "city": "Corfu",
        "state": "-",
        "country": "Greece",
        "latitude": 39.626253,
        "longitude": 19.903957,
        "source": "greenmotion",
        "matched_field": "location",
        "greenmotion_location_id": "206"
    },
    {
        "id": "gm_303",
        "label": "Crete - Agios Nikolaos",
        "below_label": "Agios Nikolaos - Crete, Agios Nikolaos, 721 00",
        "location": "Crete - Agios Nikolaos",
        "city": "Agios Nikolaos - Crete",
        "state": "Agios Nikolaos",
        "country": "Greece",
        "latitude": 35.193518,
        "longitude": 25.717871,
        "source": "greenmotion",
        "matched_field": "location",
        "greenmotion_location_id": "303"
    },
    {
        "id": "gm_304",
        "label": "Crete - Heraklion Downtown",
        "below_label": "Heraklion, Heraklion, 713 07",
        "location": "Crete - Heraklion Downtown",
        "city": "Heraklion",
        "state": "Heraklion",
        "country": "Greece",
        "latitude": 35.3374,
        "longitude": 25.165385,
        "source": "greenmotion",
        "matched_field": "location",
        "greenmotion_location_id": "304"
    },
    {
        "id": "gm_305",
        "label": "Crete - Heraklion Port",
        "below_label": "Heraklion, Heraklion, 713 07",
        "location": "Crete - Heraklion Port",
        "city": "Heraklion",
        "state": "Heraklion",
        "country": "Greece",
        "latitude": 35.3374,
        "longitude": 25.165385,
        "source": "greenmotion",
        "matched_field": "location",
        "greenmotion_location_id": "305"
    },
    {
        "id": "gm_172",
        "label": "Crete - Rethymno Adelianos Kampos",
        "below_label": "Adelianos, Adelianos, 741 00",
        "location": "Crete - Rethymno Adelianos Kampos",
        "city": "Adelianos",
        "state": "Adelianos",
        "country": "Greece",
        "latitude": 35.374275,
        "longitude": 24.552777,
        "source": "greenmotion",
        "matched_field": "location",
        "greenmotion_location_id": "172"
    },
    {
        "id": "gm_240",
        "label": "Igoumenitsa Downtown",
        "below_label": "Igoumenitsa, Igoumenitsa, 461 00",
        "location": "Igoumenitsa Downtown",
        "city": "Igoumenitsa",
        "state": "Igoumenitsa",
        "country": "Greece",
        "latitude": 39.498733,
        "longitude": 20.264032,
        "source": "greenmotion",
        "matched_field": "location",
        "greenmotion_location_id": "240"
    },
    {
        "id": "gm_153",
        "label": "Igoumenitsa Port",
        "below_label": "Igoumenista, Igoumenista, 461 00",
        "location": "Igoumenitsa Port",
        "city": "Igoumenista",
        "state": "Igoumenista",
        "country": "Greece",
        "latitude": 39.498733,
        "longitude": 20.264032,
        "source": "greenmotion",
        "matched_field": "location",
        "greenmotion_location_id": "153"
    },
    {
        "id": "gm_376",
        "label": "Kalamata Downtown",
        "below_label": "Kalamatas, Kalamatas, 241 50",
        "location": "Kalamata Downtown",
        "city": "Kalamatas",
        "state": "Kalamatas",
        "country": "Greece",
        "latitude": 37,
        "longitude": 22,
        "source": "greenmotion",
        "matched_field": "location",
        "greenmotion_location_id": "376"
    },
    {
        "id": "gm_377",
        "label": "Kalamata Port",
        "below_label": "Kalamatas, Kalamatas, 241 50",
        "location": "Kalamata Port",
        "city": "Kalamatas",
        "state": "Kalamatas",
        "country": "Greece",
        "latitude": 37,
        "longitude": 22,
        "source": "greenmotion",
        "matched_field": "location",
        "greenmotion_location_id": "377"
    },
    {
        "id": "gm_315",
        "label": "Kefalonia - Argostoli Port - Downtown",
        "below_label": "Kefalonia, Kefalonia, 281 00",
        "location": "Kefalonia - Argostoli Port - Downtown",
        "city": "Kefalonia",
        "state": "Kefalonia",
        "country": "Greece",
        "latitude": 38.1188,
        "longitude": 20.507225,
        "source": "greenmotion",
        "matched_field": "location",
        "greenmotion_location_id": "315"
    },
    {
        "id": "gm_314",
        "label": "Kefalonia - Lassi Downtown",
        "below_label": "Kefalonia, Kefalonia, 281 00",
        "location": "Kefalonia - Lassi Downtown",
        "city": "Kefalonia",
        "state": "Kefalonia",
        "country": "Greece",
        "latitude": 38.1188,
        "longitude": 20.507225,
        "source": "greenmotion",
        "matched_field": "location",
        "greenmotion_location_id": "314"
    },
    {
        "id": "gm_319",
        "label": "Kefalonia - Lixouri Port",
        "below_label": "Kefalonia, Kefalonia, 281 00",
        "location": "Kefalonia - Lixouri Port",
        "city": "Kefalonia",
        "state": "Kefalonia",
        "country": "Greece",
        "latitude": 38.1188,
        "longitude": 20.507225,
        "source": "greenmotion",
        "matched_field": "location",
        "greenmotion_location_id": "319"
    },
    {
        "id": "gm_320",
        "label": "Kefalonia - Pessada Port",
        "below_label": "Kefalonia, Kefalonia, 281 00",
        "location": "Kefalonia - Pessada Port",
        "city": "Kefalonia",
        "state": "Kefalonia",
        "country": "Greece",
        "latitude": 38.1188,
        "longitude": 20.507225,
        "source": "greenmotion",
        "matched_field": "location",
        "greenmotion_location_id": "320"
    },
    {
        "id": "gm_316",
        "label": "Kefalonia - Poros Port",
        "below_label": "Kefalonia, Kefalonia, 281 00",
        "location": "Kefalonia - Poros Port",
        "city": "Kefalonia",
        "state": "Kefalonia",
        "country": "Greece",
        "latitude": 38.1188,
        "longitude": 20.507225,
        "source": "greenmotion",
        "matched_field": "location",
        "greenmotion_location_id": "316"
    },
    {
        "id": "gm_317",
        "label": "Kefalonia - Sami Port",
        "below_label": "Kefalonia, Kefalonia, 281 00",
        "location": "Kefalonia - Sami Port",
        "city": "Kefalonia",
        "state": "Kefalonia",
        "country": "Greece",
        "latitude": 38.1188,
        "longitude": 20.507225,
        "source": "greenmotion",
        "matched_field": "location",
        "greenmotion_location_id": "317"
    },
    {
        "id": "gm_151",
        "label": "Lefkada Agios Nikitas",
        "below_label": "LEFKAS, -, 31 100",
        "location": "Lefkada Agios Nikitas",
        "city": "LEFKAS",
        "state": "-",
        "country": "Greece",
        "latitude": 38.787463,
        "longitude": 20.612551,
        "source": "greenmotion",
        "matched_field": "location",
        "greenmotion_location_id": "151"
    },
    {
        "id": "gm_150",
        "label": "Lefkada Downtown",
        "below_label": "Lefkada, Lefkada, 311 00",
        "location": "Lefkada Downtown",
        "city": "Lefkada",
        "state": "Lefkada",
        "country": "Greece",
        "latitude": 38.834337,
        "longitude": 20.71048,
        "source": "greenmotion",
        "matched_field": "location",
        "greenmotion_location_id": "150"
    },
    {
        "id": "gm_152",
        "label": "Lefkada Nidri",
        "below_label": "LEFKAS, -, 31 100",
        "location": "Lefkada Nidri",
        "city": "LEFKAS",
        "state": "-",
        "country": "Greece",
        "latitude": 38.709512,
        "longitude": 20.713122,
        "source": "greenmotion",
        "matched_field": "location",
        "greenmotion_location_id": "152"
    },
    {
        "id": "gm_239",
        "label": "Lefkada Vasilliki Port",
        "below_label": "Lefkas, -, 31 100",
        "location": "Lefkada Vasilliki Port",
        "city": "Lefkas",
        "state": "-",
        "country": "Greece",
        "latitude": 38.709512,
        "longitude": 20.713122,
        "source": "greenmotion",
        "matched_field": "location",
        "greenmotion_location_id": "239"
    },
    {
        "id": "gm_331",
        "label": "Mykonos Old Port",
        "below_label": "Mykonos, Mykonos, 846 00",
        "location": "Mykonos Old Port",
        "city": "Mykonos",
        "state": "Mykonos",
        "country": "Greece",
        "latitude": 37.4499115,
        "longitude": 25.3303271,
        "source": "greenmotion",
        "matched_field": "location",
        "greenmotion_location_id": "331"
    },
    {
        "id": "gm_61715",
        "label": "Naxos Port",
        "below_label": "Chora Naxou, Naxos, Cyclades, PC 84300",
        "location": "Naxos Port",
        "city": "Chora Naxou",
        "state": "Naxos, Cyclades",
        "country": "Greece",
        "latitude": 37.0990624,
        "longitude": 25.3768975,
        "source": "greenmotion",
        "matched_field": "location",
        "greenmotion_location_id": "61715"
    },
    {
        "id": "gm_61431",
        "label": "Paros Port",
        "below_label": "Central Port of Parikia Paros, Paros, 84400",
        "location": "Paros Port",
        "city": "Central Port of Parikia Paros",
        "state": "Paros",
        "country": "Greece",
        "latitude": 37.0859801,
        "longitude": 25.1487478,
        "source": "greenmotion",
        "matched_field": "location",
        "greenmotion_location_id": "61431"
    },
    {
        "id": "gm_217",
        "label": "Preveza Aktion Marinas (Aktio, Cleopatra, Ionian)",
        "below_label": "Preveza, -, 300 02",
        "location": "Preveza Aktion Marinas (Aktio, Cleopatra, Ionian)",
        "city": "Preveza",
        "state": "-",
        "country": "Greece",
        "latitude": 38.931044,
        "longitude": 20.771713,
        "source": "greenmotion",
        "matched_field": "location",
        "greenmotion_location_id": "217"
    },
    {
        "id": "gm_252",
        "label": "Rhodes Downtown",
        "below_label": "Rhodes, 851 00",
        "location": "Rhodes Downtown",
        "city": "Rhodes",
        "state": "",
        "country": "Greece",
        "latitude": 36.373132,
        "longitude": 28.19235,
        "source": "greenmotion",
        "matched_field": "location",
        "greenmotion_location_id": "252"
    },
    {
        "id": "gm_253",
        "label": "Rhodes Faliraki",
        "below_label": "Rhodes, 851 00",
        "location": "Rhodes Faliraki",
        "city": "Rhodes",
        "state": "",
        "country": "Greece",
        "latitude": 36.373132,
        "longitude": 28.19235,
        "source": "greenmotion",
        "matched_field": "location",
        "greenmotion_location_id": "253"
    },
    {
        "id": "gm_254",
        "label": "Rhodes Ialysos",
        "below_label": "Rhodes, 851 00",
        "location": "Rhodes Ialysos",
        "city": "Rhodes",
        "state": "",
        "country": "Greece",
        "latitude": 36.408422,
        "longitude": 28.1067,
        "source": "greenmotion",
        "matched_field": "location",
        "greenmotion_location_id": "254"
    },
    {
        "id": "gm_257",
        "label": "Rhodes Lindos",
        "below_label": "Rhodes, 851 00",
        "location": "Rhodes Lindos",
        "city": "Rhodes",
        "state": "",
        "country": "Greece",
        "latitude": 36.373132,
        "longitude": 28.19235,
        "source": "greenmotion",
        "matched_field": "location",
        "greenmotion_location_id": "257"
    },
    {
        "id": "gm_258",
        "label": "Rhodes Port",
        "below_label": "Rhodes, 851 00",
        "location": "Rhodes Port",
        "city": "Rhodes",
        "state": "",
        "country": "Greece",
        "latitude": 36.373132,
        "longitude": 28.19235,
        "source": "greenmotion",
        "matched_field": "location",
        "greenmotion_location_id": "258"
    },
    {
        "id": "gm_333",
        "label": "Samos Pythagorion",
        "below_label": "Samos, 831 00",
        "location": "Samos Pythagorion",
        "city": "Samos",
        "state": "",
        "country": "Greece",
        "latitude": 37.690505,
        "longitude": 26.938236,
        "source": "greenmotion",
        "matched_field": "location",
        "greenmotion_location_id": "333"
    },
    {
        "id": "gm_334",
        "label": "Samos Pythagorion Port",
        "below_label": "Samos, 831 00",
        "location": "Samos Pythagorion Port",
        "city": "Samos",
        "state": "",
        "country": "Greece",
        "latitude": 37.690505,
        "longitude": 26.938236,
        "source": "greenmotion",
        "matched_field": "location",
        "greenmotion_location_id": "334"
    },
    {
        "id": "gm_336",
        "label": "Samos Vathy Port",
        "below_label": "Samos, 831 00",
        "location": "Samos Vathy Port",
        "city": "Samos",
        "state": "",
        "country": "Greece",
        "latitude": 37.690505,
        "longitude": 26.938236,
        "source": "greenmotion",
        "matched_field": "location",
        "greenmotion_location_id": "336"
    },
    {
        "id": "gm_61576",
        "label": "Santorini Firostefani",
        "below_label": "Santorini, 84700",
        "location": "Santorini Firostefani",
        "city": "Santorini",
        "state": "",
        "country": "Greece",
        "latitude": 36.42099347178298,
        "longitude": 25.43197010015928,
        "source": "greenmotion",
        "matched_field": "location",
        "greenmotion_location_id": "61576"
    },
    {
        "id": "gm_61575",
        "label": "Santorini New Port",
        "below_label": "Santorini, 84700",
        "location": "Santorini New Port",
        "city": "Santorini",
        "state": "",
        "country": "Greece",
        "latitude": 36.42098571983843,
        "longitude": 25.43196419567025,
        "source": "greenmotion",
        "matched_field": "location",
        "greenmotion_location_id": "61575"
    },
    {
        "id": "gm_382",
        "label": "Skiathos Downtown",
        "below_label": "Skiathos, 37002",
        "location": "Skiathos Downtown",
        "city": "Skiathos",
        "state": "",
        "country": "Greece",
        "latitude": 39.163798,
        "longitude": 23.491774,
        "source": "greenmotion",
        "matched_field": "location",
        "greenmotion_location_id": "382"
    },
    {
        "id": "gm_391",
        "label": "Skiathos Port",
        "below_label": "Skiathos, 370 02",
        "location": "Skiathos Port",
        "city": "Skiathos",
        "state": "",
        "country": "Greece",
        "latitude": 39.16258,
        "longitude": 23.490979,
        "source": "greenmotion",
        "matched_field": "location",
        "greenmotion_location_id": "391"
    },
    {
        "id": "gm_383",
        "label": "Skopelos Downtown",
        "below_label": "Skopelos, 37003",
        "location": "Skopelos Downtown",
        "city": "Skopelos",
        "state": "",
        "country": "Greece",
        "latitude": 39.119613,
        "longitude": 23.730955,
        "source": "greenmotion",
        "matched_field": "location",
        "greenmotion_location_id": "383"
    },
    {
        "id": "gm_392",
        "label": "Skopelos Port",
        "below_label": "Skopelos, 370 03",
        "location": "Skopelos Port",
        "city": "Skopelos",
        "state": "",
        "country": "Greece",
        "latitude": 39.119466,
        "longitude": 23.730848,
        "source": "greenmotion",
        "matched_field": "location",
        "greenmotion_location_id": "392"
    },
    {
        "id": "gm_385",
        "label": "Volos Downtown",
        "below_label": "Volos, 385 00",
        "location": "Volos Downtown",
        "city": "Volos",
        "state": "",
        "country": "Greece",
        "latitude": 39.361813,
        "longitude": 22.93849,
        "source": "greenmotion",
        "matched_field": "location",
        "greenmotion_location_id": "385"
    },
    {
        "id": "gm_386",
        "label": "Volos Port",
        "below_label": "Volos, 385 00",
        "location": "Volos Port",
        "city": "Volos",
        "state": "",
        "country": "Greece",
        "latitude": 39.359335,
        "longitude": 22.946041,
        "source": "greenmotion",
        "matched_field": "location",
        "greenmotion_location_id": "386"
    },
    {
        "id": "gm_178",
        "label": "Zakynthos Downtown",
        "below_label": "Zakynthos, 291 00",
        "location": "Zakynthos Downtown",
        "city": "Zakynthos",
        "state": "",
        "country": "Greece",
        "latitude": 37.777487,
        "longitude": 20.899115,
        "source": "greenmotion",
        "matched_field": "location",
        "greenmotion_location_id": "178"
    },
    {
        "id": "gm_223",
        "label": "Zakynthos Kalamaki",
        "below_label": "Zakynthos, 291 00",
        "location": "Zakynthos Kalamaki",
        "city": "Zakynthos",
        "state": "",
        "country": "Greece",
        "latitude": 37.742202,
        "longitude": 20.895795,
        "source": "greenmotion",
        "matched_field": "location",
        "greenmotion_location_id": "223"
    },
    {
        "id": "gm_221",
        "label": "Zakynthos Port (Lomvardou)",
        "below_label": "Zakynthos, 291 00",
        "location": "Zakynthos Port (Lomvardou)",
        "city": "Zakynthos",
        "state": "",
        "country": "Greece",
        "latitude": 37.777487,
        "longitude": 20.899115,
        "source": "greenmotion",
        "matched_field": "location",
        "greenmotion_location_id": "221"
    },
    {
        "id": "gm_61199",
        "label": "Budapest Airport",
        "below_label": "Budapest",
        "location": "Budapest Airport",
        "city": "Budapest",
        "state": "",
        "country": "Hungary",
        "latitude": 47.433075253630534,
        "longitude": 19.26094556101923,
        "source": "greenmotion",
        "matched_field": "location",
        "greenmotion_location_id": "61199"
    },
    {
        "id": "gm_61707",
        "label": "Budapest Downtown",
        "below_label": "Budapest, 1074",
        "location": "Budapest Downtown",
        "city": "Budapest",
        "state": "",
        "country": "Hungary",
        "latitude": 47.5015491,
        "longitude": 19.0731145,
        "source": "greenmotion",
        "matched_field": "location",
        "greenmotion_location_id": "61707"
    },
    {
        "id": "gm_102",
        "label": "Keflavik International Airport",
        "below_label": "Keflavikurflugvollur, Keflavik,, 230",
        "location": "Keflavik International Airport",
        "city": "Keflavikurflugvollur",
        "state": "Keflavik,",
        "country": "Iceland",
        "latitude": 64.01555698863433,
        "longitude": -22.57670390182198,
        "source": "greenmotion",
        "matched_field": "location",
        "greenmotion_location_id": "102"
    },
    {
        "id": "gm_163",
        "label": "Reykjavik Downtown",
        "below_label": "Reykjav\u00edk, -, 105",
        "location": "Reykjavik Downtown",
        "city": "Reykjav\u00edk",
        "state": "-",
        "country": "Iceland",
        "latitude": 64.13188790570369,
        "longitude": -21.9169196915587,
        "source": "greenmotion",
        "matched_field": "location",
        "greenmotion_location_id": "163"
    },
    {
        "id": "gm_61549",
        "label": "Haifa Downtown",
        "below_label": "Haifa, 3223023",
        "location": "Haifa Downtown",
        "city": "Haifa",
        "state": "",
        "country": "Israel",
        "latitude": 32.78834338803086,
        "longitude": 35.038988544781105,
        "source": "greenmotion",
        "matched_field": "location",
        "greenmotion_location_id": "61549"
    },
    {
        "id": "gm_61550",
        "label": "Jerusalem Downtown",
        "below_label": "Jerusalem, 9451309",
        "location": "Jerusalem Downtown",
        "city": "Jerusalem",
        "state": "",
        "country": "Israel",
        "latitude": 31.785353490179077,
        "longitude": 35.21013558713618,
        "source": "greenmotion",
        "matched_field": "location",
        "greenmotion_location_id": "61550"
    },
    {
        "id": "gm_61547",
        "label": "Netania Downtown",
        "below_label": "Netania, 4227911",
        "location": "Netania Downtown",
        "city": "Netania",
        "state": "",
        "country": "Israel",
        "latitude": 32.32918058377775,
        "longitude": 34.85005773130128,
        "source": "greenmotion",
        "matched_field": "location",
        "greenmotion_location_id": "61547"
    },
    {
        "id": "gm_61548",
        "label": "Tel Aviv Downtown",
        "below_label": "Tel Aviv, 6617129",
        "location": "Tel Aviv Downtown",
        "city": "Tel Aviv",
        "state": "",
        "country": "Israel",
        "latitude": 32.05166528236561,
        "longitude": 34.782967745412165,
        "source": "greenmotion",
        "matched_field": "location",
        "greenmotion_location_id": "61548"
    },
    {
        "id": "gm_60515",
        "label": "Brindisi Airport",
        "below_label": "Brindisi, 72100",
        "location": "Brindisi Airport",
        "city": "Brindisi",
        "state": "",
        "country": "Italy",
        "latitude": 40.65020427113049,
        "longitude": 17.911458439370392,
        "source": "greenmotion",
        "matched_field": "location",
        "greenmotion_location_id": "60515"
    },
    {
        "id": "gm_123",
        "label": "Milano Malpensa Airport",
        "below_label": "Lonate Pozzolo (VA), 21015",
        "location": "Milano Malpensa Airport",
        "city": "Lonate Pozzolo (VA)",
        "state": "",
        "country": "Italy",
        "latitude": 45.58924420025599,
        "longitude": 8.736585882778357,
        "source": "greenmotion",
        "matched_field": "location",
        "greenmotion_location_id": "123"
    },
    {
        "id": "gm_61500",
        "label": "Napoli Airport",
        "below_label": "Napoli, 80144",
        "location": "Napoli Airport",
        "city": "Napoli",
        "state": "",
        "country": "Italy",
        "latitude": 40.874553,
        "longitude": 14.285428,
        "source": "greenmotion",
        "matched_field": "location",
        "greenmotion_location_id": "61500"
    },
    {
        "id": "gm_291",
        "label": "Palermo Airport",
        "below_label": "Cinisi PA, 90045",
        "location": "Palermo Airport",
        "city": "Cinisi PA",
        "state": "",
        "country": "Italy",
        "latitude": 38.1651088,
        "longitude": 13.0922412,
        "source": "greenmotion",
        "matched_field": "location",
        "greenmotion_location_id": "291"
    },
    {
        "id": "gm_114",
        "label": "Pisa Airport",
        "below_label": "Pisa, 56121",
        "location": "Pisa Airport",
        "city": "Pisa",
        "state": "",
        "country": "Italy",
        "latitude": 43.69798,
        "longitude": 10.40421,
        "source": "greenmotion",
        "matched_field": "location",
        "greenmotion_location_id": "114"
    },
    {
        "id": "gm_292",
        "label": "Rome Ciampino Airport",
        "below_label": "Roma, 00173",
        "location": "Rome Ciampino Airport",
        "city": "Roma",
        "state": "",
        "country": "Italy",
        "latitude": 41.8340413211147,
        "longitude": 12.5961292349895,
        "source": "greenmotion",
        "matched_field": "location",
        "greenmotion_location_id": "292"
    },
    {
        "id": "gm_157",
        "label": "Rome Fiumicino International Airport",
        "below_label": "Fiumicino (RM), 00054",
        "location": "Rome Fiumicino International Airport",
        "city": "Fiumicino (RM)",
        "state": "",
        "country": "Italy",
        "latitude": 41.77185270661845,
        "longitude": 12.242315696712033,
        "source": "greenmotion",
        "matched_field": "location",
        "greenmotion_location_id": "157"
    },
    {
        "id": "gm_61200",
        "label": "Firenze Downtown",
        "below_label": "Firenze, 50144",
        "location": "Firenze Downtown",
        "city": "Firenze",
        "state": "",
        "country": "Italy",
        "latitude": 43.78017165694872,
        "longitude": 11.239708657671574,
        "source": "greenmotion",
        "matched_field": "location",
        "greenmotion_location_id": "61200"
    },
    {
        "id": "gm_61197",
        "label": "Firenze Railway Station",
        "below_label": "Firenze, 50144",
        "location": "Firenze Railway Station",
        "city": "Firenze",
        "state": "",
        "country": "Italy",
        "latitude": 43.78017165694872,
        "longitude": 11.239708657671574,
        "source": "greenmotion",
        "matched_field": "location",
        "greenmotion_location_id": "61197"
    },
    {
        "id": "gm_61501",
        "label": "Napoli Afragola Railway Station",
        "below_label": "Napoli, 80144",
        "location": "Napoli Afragola Railway Station",
        "city": "Napoli",
        "state": "",
        "country": "Italy",
        "latitude": 40.874553,
        "longitude": 14.285428,
        "source": "greenmotion",
        "matched_field": "location",
        "greenmotion_location_id": "61501"
    },
    {
        "id": "gm_61602",
        "label": "Napoli Centrale Railway Station",
        "below_label": "Napoli, 80142",
        "location": "Napoli Centrale Railway Station",
        "city": "Napoli",
        "state": "",
        "country": "Italy",
        "latitude": 40.854736,
        "longitude": 14.271103,
        "source": "greenmotion",
        "matched_field": "location",
        "greenmotion_location_id": "61602"
    },
    {
        "id": "gm_165",
        "label": "Palermo Downtown",
        "below_label": "Palermo, 90147",
        "location": "Palermo Downtown",
        "city": "Palermo",
        "state": "",
        "country": "Italy",
        "latitude": 38.184798,
        "longitude": 13.298608,
        "source": "greenmotion",
        "matched_field": "location",
        "greenmotion_location_id": "165"
    },
    {
        "id": "gm_121",
        "label": "Queen Alia International Airport",
        "below_label": "Amman, 11104",
        "location": "Queen Alia International Airport",
        "city": "Amman",
        "state": "",
        "country": "Jordan",
        "latitude": 31.751030952393524,
        "longitude": 35.94089884973838,
        "source": "greenmotion",
        "matched_field": "location",
        "greenmotion_location_id": "121"
    },
    {
        "id": "gm_61163",
        "label": "Amman Mecca Street",
        "below_label": "Amman, 11185",
        "location": "Amman Mecca Street",
        "city": "Amman",
        "state": "",
        "country": "Jordan",
        "latitude": 31.9684413716172,
        "longitude": 35.8799101456459,
        "source": "greenmotion",
        "matched_field": "location",
        "greenmotion_location_id": "61163"
    },
    {
        "id": "gm_61524",
        "label": "Diani Airport",
        "below_label": "Kwale county, Kwale county, 80400",
        "location": "Diani Airport",
        "city": "Kwale county",
        "state": "Kwale county",
        "country": "Kenya",
        "latitude": -4.296447485899936,
        "longitude": 39.57219540650422,
        "source": "greenmotion",
        "matched_field": "location",
        "greenmotion_location_id": "61524"
    },
    {
        "id": "gm_61649",
        "label": "Malindi International Airport",
        "below_label": "Malindi, PO Box 67",
        "location": "Malindi International Airport",
        "city": "Malindi",
        "state": "",
        "country": "Kenya",
        "latitude": -3.2311128264202122,
        "longitude": 40.09998075888046,
        "source": "greenmotion",
        "matched_field": "location",
        "greenmotion_location_id": "61649"
    },
    {
        "id": "gm_61260",
        "label": "Mombasa Moi International Airport",
        "below_label": "Mombasa",
        "location": "Mombasa Moi International Airport",
        "city": "Mombasa",
        "state": "",
        "country": "Kenya",
        "latitude": -4.04,
        "longitude": 39.59,
        "source": "greenmotion",
        "matched_field": "location",
        "greenmotion_location_id": "61260"
    },
    {
        "id": "gm_59898",
        "label": "Nairobi International Airport",
        "below_label": "Nairobi",
        "location": "Nairobi International Airport",
        "city": "Nairobi",
        "state": "",
        "country": "Kenya",
        "latitude": -1.333731,
        "longitude": 36.927109,
        "source": "greenmotion",
        "matched_field": "location",
        "greenmotion_location_id": "59898"
    },
    {
        "id": "gm_61523",
        "label": "Sgr Train Terminus, Mombasa",
        "below_label": "Mombasa,, Mombasa,, 80100",
        "location": "Sgr Train Terminus, Mombasa",
        "city": "Mombasa,",
        "state": "Mombasa,",
        "country": "Kenya",
        "latitude": -4.021696526186627,
        "longitude": 39.57916505669951,
        "source": "greenmotion",
        "matched_field": "location",
        "greenmotion_location_id": "61523"
    },
    {
        "id": "gm_61521",
        "label": "SGR Train Terminus, Nairobi",
        "below_label": "Nairobi, Nairobi, 00100",
        "location": "SGR Train Terminus, Nairobi",
        "city": "Nairobi",
        "state": "Nairobi",
        "country": "Kenya",
        "latitude": -1.3541510756726236,
        "longitude": 36.89857443290718,
        "source": "greenmotion",
        "matched_field": "location",
        "greenmotion_location_id": "61521"
    },
    {
        "id": "gm_60175",
        "label": "Prishtina International Airport",
        "below_label": "Sllatine, 14060",
        "location": "Prishtina International Airport",
        "city": "Sllatine",
        "state": "",
        "country": "Kosovo",
        "latitude": 42.585163,
        "longitude": 21.027714,
        "source": "greenmotion",
        "matched_field": "location",
        "greenmotion_location_id": "60175"
    },
    {
        "id": "gm_61692",
        "label": "Kuwait International Airport",
        "below_label": "",
        "location": "Kuwait International Airport",
        "city": "",
        "state": "",
        "country": "Kuwait",
        "latitude": 0,
        "longitude": 0,
        "source": "greenmotion",
        "matched_field": "location",
        "greenmotion_location_id": "61692"
    },
    {
        "id": "gm_181",
        "label": "Riga Airport",
        "below_label": "Riga, -, LV-1053",
        "location": "Riga Airport",
        "city": "Riga",
        "state": "-",
        "country": "Latvia",
        "latitude": 56.9227,
        "longitude": 23.9733,
        "source": "greenmotion",
        "matched_field": "location",
        "greenmotion_location_id": "181"
    },
    {
        "id": "gm_183",
        "label": "Riga Bus Station",
        "below_label": "Riga, -, LV-1050",
        "location": "Riga Bus Station",
        "city": "Riga",
        "state": "-",
        "country": "Latvia",
        "latitude": 56.947243,
        "longitude": 24.105198,
        "source": "greenmotion",
        "matched_field": "location",
        "greenmotion_location_id": "183"
    },