[
    {
        "unified_location_id": 2079935404,
        "name": "Antwerp",
        "city": "Antwerp",
        "country": "Belgium",
        "latitude": 51.199993,
        "longitude": 4.431101,
        "providers": [],
        "our_location_id": "internal_317e002afc63269b03028d6b10b46378"
    },
    {
        "unified_location_id": 3192335292,
        "name": "deurne",
        "city": "deurne",
        "country": "Belgium",
        "latitude": 51.22134018,
        "longitude": 4.46595001,
        "providers": [],
        "our_location_id": "internal_95a174c02e5e3a04a825c475e79127cc"
    },
    {
        "unified_location_id": 1638484362,
        "name": "Marrakech",
        "city": "Marrakech",
        "country": "Morocco",
        "latitude": 31.622189,
        "longitude": -7.991634,
        "providers": [],
        "our_location_id": "internal_05a8cae334517548a0bfcb93274c6726"
    },
    {
        "unified_location_id": 664243826,
        "name": "Tangier ",
        "city": "Tangier ",
        "country": "Morocco",
        "latitude": 35.72626114,
        "longitude": -5.77400017,
        "providers": [],
        "our_location_id": "internal_771b36c757ba990998cc1ea7be8c0967"
    },
    {
        "unified_location_id": 4262033514,
        "name": "Azilal",
        "city": "Azilal",
        "country": "Morocco",
        "latitude": 31.657061,
        "longitude": -7.182618,
        "providers": [],
        "our_location_id": "internal_1e5a14c5a21db6cbdd5a41d27d79c9b0"
    },
    {
        "unified_location_id": 823441467,
        "name": "Casablanca",
        "city": "Casablanca",
        "country": "Morocco",
        "latitude": 33.557563,
        "longitude": -7.680777,
        "providers": [],
        "our_location_id": "internal_4a8b956fbf751d675a6838a2d50f3d23"
    },
    {
        "unified_location_id": 2736643668,
        "name": "Hoceima",
        "city": "Hoceima",
        "country": "Morocco",
        "latitude": 35.57845,
        "longitude": -5.36837,
        "providers": [],
        "our_location_id": "internal_528c6a7c2a8c43de00ad31dc01af795c"
    },
    {
        "unified_location_id": 2792825945,
        "name": "Rabat",
        "city": "Rabat",
        "country": "Morocco",
        "latitude": 33.925674,
        "longitude": -6.296147,
        "providers": [],
        "our_location_id": "internal_34c3f946f0a58a3d3234dfab228acffb"
    },
    {
        "unified_location_id": 731016278,
        "name": "Mekn\u00e8s",
        "city": "Mekn\u00e8s",
        "country": "Morocco",
        "latitude": 33.912343,
        "longitude": -4.757109,
        "providers": [],
        "our_location_id": "internal_10b6c024c55c9d28bdb056fcb1256a90"
    },
    {
        "unified_location_id": 644715360,
        "name": "Kassita",
        "city": "Kassita",
        "country": "Morocco",
        "latitude": 34.89025116,
        "longitude": -3.72656989,
        "providers": [],
        "our_location_id": "internal_400da25d27159b05e709fbe2c8b84282"
    },
    {
        "unified_location_id": 2041776832,
        "name": "Al Nador",
        "city": "Al Nador",
        "country": "Morocco",
        "latitude": 35.173351,
        "longitude": -2.937423,
        "providers": [],
        "our_location_id": "internal_98634602ac5aa9974a25616803569304"
    },
    {
        "unified_location_id": 932809842,
        "name": "Chichaoua Province",
        "city": "Chichaoua Province",
        "country": "Morocco",
        "latitude": 31.612743,
        "longitude": -8.484438,
        "providers": [],
        "our_location_id": "internal_694932505655b0ebb754401a2820ad5b"
    },
    {
        "unified_location_id": 1485611547,
        "name": "Kenitra ",
        "city": "Kenitra ",
        "country": "Morocco",
        "latitude": 34.58332825,
        "longitude": -6.33333015,
        "providers": [],
        "our_location_id": "internal_73322c9cea99a16814addfd666976c6e"
    },
    {
        "unified_location_id": 5983010,
        "name": "Lommel",
        "city": "Lommel",
        "country": "Belgium",
        "latitude": 51.230407,
        "longitude": 5.307285,
        "providers": [],
        "our_location_id": "internal_8aee9356deaf99b9493e0a162ba8ca10"
    },
    {
        "unified_location_id": 3846946821,
        "name": "Sal\u00e9",
        "city": "Sal\u00e9",
        "country": "Morocco",
        "latitude": 34.056073,
        "longitude": -6.790237,
        "providers": [],
        "our_location_id": "internal_2a9ae9f459daecd22e2cb8cb888a62f4"
    },
    {
        "unified_location_id": 3272586972,
        "name": "Martil",
        "city": "Martil",
        "country": "Morocco",
        "latitude": 35.619626,
        "longitude": -5.284118,
        "providers": [],
        "our_location_id": "internal_b12957f4fbb09ede8b214ba6f7510e1b"
    },
    {
        "unified_location_id": 1664669216,
        "name": "Wommelgem",
        "city": "Wommelgem",
        "country": "Belgi\u00eb",
        "latitude": 51.210639,
        "longitude": 4.510339,
        "providers": [],
        "our_location_id": "internal_7cd90d642b194b0185dfb9c5ef085d5c"
    },
    {
        "unified_location_id": 3891622354,
        "name": "Orlando",
        "city": "Orlando",
        "country": "United States",
        "latitude": 28.424442,
        "longitude": -81.310459,
        "providers": [],
        "our_location_id": "internal_3b48a0452e36e4410be22116b4a65cc5"
    },
    {
        "unified_location_id": 4121619050,
        "name": "Dubai",
        "city": "Dubai",
        "country": "United Arab Emirates",
        "latitude": 25.130898,
        "longitude": 55.214735,
        "providers": [],
        "our_location_id": "internal_d177ecbe3d809d62f06975f3f2e9848f"
    },
    {
        "unified_location_id": 3238324315,
        "name": "Karm\u0117lava",
        "city": "Karm\u0117lava",
        "country": "Lithuania",
        "latitude": 54.967017,
        "longitude": 24.073847,
        "providers": [],
        "our_location_id": "internal_610d7afb7eaaca16754cd856aa02ca40"
    },
    {
        "unified_location_id": 814828671,
        "name": "Sample City",
        "city": "Sample City",
        "country": "US",
        "latitude": 34.052235,
        "longitude": -118.243683,
        "providers": [],
        "our_location_id": "internal_df6ded55620d261cd057831e31952acb"
    },
    {
        "unified_location_id": 2502232690,
        "name": "Santa Cruz de Tenerife",
        "city": "Santa Cruz de Tenerife",
        "country": "Espa\u00f1a",
        "latitude": 28.046757,
        "longitude": -16.57253,
        "providers": [],
        "our_location_id": "internal_53282502efcea484e71931ef9f0b733d"
    },
    {
        "unified_location_id": 1879747283,
        "name": "Nador",
        "city": "Nador",
        "country": "Maroc",
        "latitude": 35.171142,
        "longitude": -2.925968,
        "providers": [],
        "our_location_id": "internal_ba34888ba1f71e3b2d49fe64e6d87747"
    },
    {
        "unified_location_id": 867455194,
        "name": "Tirana Airport",
        "city": "Tirana",
        "country": "Albania",
        "latitude": 41.4192778,
        "longitude": 19.712083333333332,
        "providers": [
            {
                "provider": "greenmotion",
                "pickup_id": "53981",
                "dropoffs": []
            },
            {
                "provider": "usave",
                "pickup_id": "61564",
                "dropoffs": []
            }
        ],
        "our_location_id": null
    },
    {
        "unified_location_id": 2427362095,
        "name": "Durres Port",
        "city": "Tirana",
        "country": "Albania",
        "latitude": 41.31758992448847,
        "longitude": 19.454257762470032,
        "providers": [
            {
                "provider": "greenmotion",
                "pickup_id": "56725",
                "dropoffs": []
            }
        ],
        "our_location_id": null
    },
    {
        "unified_location_id": 2115831807,
        "name": "Saranda Port",
        "city": "Sarande",
        "country": "Albania",
        "latitude": 39.87171024635132,
        "longitude": 20.002591657790184,
        "providers": [
            {
                "provider": "greenmotion",
                "pickup_id": "57376",
                "dropoffs": []
            }
        ],
        "our_location_id": null
    },
    {
        "unified_location_id": 3791384561,
        "name": "Shkodra Downtown",
        "city": "Shkoder",
        "country": "Albania",
        "latitude": 42.06598218479618,
        "longitude": 19.510497530005082,
        "providers": [
            {
                "provider": "greenmotion",
                "pickup_id": "57374",
                "dropoffs": []
            }
        ],
        "our_location_id": null
    },
    {
        "unified_location_id": 47914040,
        "name": "Tirana Downtown",
        "city": "Tirana",
        "country": "Albania",
        "latitude": 41.335330596956915,
        "longitude": 19.815760369723435,
        "providers": [
            {
                "provider": "greenmotion",
                "pickup_id": "56722",
                "dropoffs": []
            }
        ],
        "our_location_id": null
    },
    {
        "unified_location_id": 348188014,
        "name": "St John's International Airport",
        "city": "St John's",
        "country": "Antigua and Barbuda",
        "latitude": 17.14167109215906,
        "longitude": -61.790518073456944,
        "providers": [
            {
                "provider": "greenmotion",
                "pickup_id": "61216",
                "dropoffs": []
            }
        ],
        "our_location_id": null
    },
    {
        "unified_location_id": 3412301606,
        "name": "Belmont Complex",
        "city": "St John's",
        "country": "Antigua and Barbuda",
        "latitude": 17.09601875610999,
        "longitude": -61.81757055038411,
        "providers": [
            {
                "provider": "greenmotion",
                "pickup_id": "61213",
                "dropoffs": []
            }
        ],
        "our_location_id": null
    },
    {
        "unified_location_id": 450235539,
        "name": "Jujuy Airport",
        "city": "JUJUY",
        "country": "Argentina",
        "latitude": -24.385617578568016,
        "longitude": -65.09395712168337,
        "providers": [
            {
                "provider": "greenmotion",
                "pickup_id": "61312",
                "dropoffs": []
            }
        ],
        "our_location_id": null
    },
    {
        "unified_location_id": 930508297,
        "name": "Aeropuerto Internacional General Martin Miguel de Guemes",
        "city": "Salta",
        "country": "Argentina",
        "latitude": -24.84438969642992,
        "longitude": -65.47851806911557,
        "providers": [
            {
                "provider": "greenmotion",
                "pickup_id": "61409",
                "dropoffs": []
            }
        ],
        "our_location_id": null
    },
    {
        "unified_location_id": 1959013434,
        "name": "Salta Center Office",
        "city": "SALTA",
        "country": "Argentina",
        "latitude": -24.80061957191467,
        "longitude": -65.40045743077224,
        "providers": [
            {
                "provider": "greenmotion",
                "pickup_id": "61313",
                "dropoffs": []
            }
        ],
        "our_location_id": null
    },
    {
        "unified_location_id": 4185883539,
        "name": "Yerevan Airport",
        "city": "Yerevan",
        "country": "Armenia",
        "latitude": 40.1493854946256,
        "longitude": 44.39882009652637,
        "providers": [
            {
                "provider": "greenmotion",
                "pickup_id": "61348",
                "dropoffs": []
            }
        ],
        "our_location_id": null
    },
    {
        "unified_location_id": 374214196,
        "name": "Darwin Airport",
        "city": "Nightcliff",
        "country": "Australia",
        "latitude": -12.38763,
        "longitude": 130.85197,
        "providers": [
            {
                "provider": "greenmotion",
                "pickup_id": "61436",
                "dropoffs": []
            }
        ],
        "our_location_id": null
    },
    {
        "unified_location_id": 3634125368,
        "name": "Sydney Airport",
        "city": "Sydney",
        "country": "Australia",
        "latitude": -33.92683,
        "longitude": 151.18797,
        "providers": [
            {
                "provider": "greenmotion",
                "pickup_id": "60091",
                "dropoffs": []
            }
        ],
        "our_location_id": null
    },
    {
        "unified_location_id": 1777682553,
        "name": "Ballarat Downtown",
        "city": "Ballarat",
        "country": "Australia",
        "latitude": -37.56270042396447,
        "longitude": 143.93165068742826,
        "providers": [
            {
                "provider": "greenmotion",
                "pickup_id": "60637",
                "dropoffs": []
            }
        ],
        "our_location_id": null
    },
    {
        "unified_location_id": 4055390033,
        "name": "Coogee Beach",
        "city": "Coogee",
        "country": "Australia",
        "latitude": -33.922508,
        "longitude": 151.256073,
        "providers": [
            {
                "provider": "greenmotion",
                "pickup_id": "60707",
                "dropoffs": []
            }
        ],
        "our_location_id": null
    },
    {
        "unified_location_id": 2962521072,
        "name": "Sydney CBD Downtown",
        "city": "Sydney",
        "country": "Australia",
        "latitude": -33.8741,
        "longitude": 151.20426,
        "providers": [
            {
                "provider": "greenmotion",
                "pickup_id": "61433",
                "dropoffs": []
            }
        ],
        "our_location_id": null
    },
    {
        "unified_location_id": 3621772409,
        "name": "Sydney Marrickville Downtown",
        "city": "Marrickville",
        "country": "Australia",
        "latitude": -33.90446,
        "longitude": 151.16513,
        "providers": [
            {
                "provider": "greenmotion",
                "pickup_id": "61435",
                "dropoffs": []
            }
        ],
        "our_location_id": null
    },
    {
        "unified_location_id": 998708896,
        "name": "Vienna International Airport",
        "city": "Fischamend",
        "country": "Austria",
        "latitude": 48.12512,
        "longitude": 16.58926,
        "providers": [
            {
                "provider": "greenmotion",
                "pickup_id": "58366",
                "dropoffs": []
            },
            {
                "provider": "usave",
                "pickup_id": "61505",
                "dropoffs": []
            }
        ],
        "our_location_id": null
    },
    {
        "unified_location_id": 3828084272,
        "name": "Vienna Central Train Station",
        "city": "Vienna",
        "country": "Austria",
        "latitude": 48.185261,
        "longitude": 16.376876,
        "providers": [
            {
                "provider": "greenmotion",
                "pickup_id": "60599",
                "dropoffs": []
            }
        ],
        "our_location_id": null
    },
    {
        "unified_location_id": 147662880,
        "name": "Vienna Downtown",
        "city": "Wien",
        "country": "Austria",
        "latitude": 48.186549146006215,
        "longitude": 16.401483868147103,
        "providers": [
            {
                "provider": "greenmotion",
                "pickup_id": "61672",
                "dropoffs": []
            }
        ],
        "our_location_id": null
    },
    {
        "unified_location_id": 1042737181,
        "name": "Baku International Airport",
        "city": "Baku",
        "country": "Azerbaijan",
        "latitude": 40.46515214363659,
        "longitude": 50.05201997083241,
        "providers": [
            {
                "provider": "greenmotion",
                "pickup_id": "61346",
                "dropoffs": []
            }
        ],
        "our_location_id": null
    },
    {
        "unified_location_id": 3373103805,
        "name": "Baku Downtown",
        "city": "Baku",
        "country": "Azerbaijan",
        "latitude": 40.38279744258945,
        "longitude": 49.87740087817644,
        "providers": [
            {
                "provider": "greenmotion",
                "pickup_id": "61345",
                "dropoffs": []
            }
        ],
        "our_location_id": null
    },
    {
        "unified_location_id": 44492495,
        "name": "Banja Luka Airport",
        "city": "Mahovljani",
        "country": "Bosnia and Herzegovina",
        "latitude": 44.9413986,
        "longitude": 17.2975006,
        "providers": [
            {
                "provider": "greenmotion",
                "pickup_id": "61024",
                "dropoffs": []
            }
        ],
        "our_location_id": null
    },
    {
        "unified_location_id": 1413813689,
        "name": "Sarajevo Airport",
        "city": "Sarajevo",
        "country": "Bosnia and Herzegovina",
        "latitude": 43.826372,
        "longitude": 18.336896,
        "providers": [
            {
                "provider": "greenmotion",
                "pickup_id": "244",
                "dropoffs": []
            }
        ],
        "our_location_id": null
    },
    {
        "unified_location_id": 2003594541,
        "name": "Tuzla Airport",
        "city": "Dubrave Gornje",
        "country": "Bosnia and Herzegovina",
        "latitude": 44.46976008712687,
        "longitude": 18.713078534509357,
        "providers": [
            {
                "provider": "greenmotion",
                "pickup_id": "284",
                "dropoffs": []
            }
        ],
        "our_location_id": null
    },
    {
        "unified_location_id": 1865935461,
        "name": "Banja Luka Downtown",
        "city": "Banja Luka",
        "country": "Bosnia and Herzegovina",
        "latitude": 44.77879,
        "longitude": 17.19586,
        "providers": [
            {
                "provider": "greenmotion",
                "pickup_id": "61026",
                "dropoffs": []
            }
        ],
        "our_location_id": null
    },
    {
        "unified_location_id": 3590839711,
        "name": "Sarajevo Downtown",
        "city": "Sarajevo",
        "country": "Bosnia and Herzegovina",
        "latitude": 43.853985,
        "longitude": 18.387792,
        "providers": [
            {
                "provider": "greenmotion",
                "pickup_id": "243",
                "dropoffs": []
            }
        ],
        "our_location_id": null
    },
    {
        "unified_location_id": 558277562,
        "name": "Tuzla Downtown",
        "city": "Tuzla",
        "country": "Bosnia and Herzegovina",
        "latitude": 44.534338,
        "longitude": 18.692107,
        "providers": [
            {
                "provider": "greenmotion",
                "pickup_id": "285",
                "dropoffs": []
            }
        ],
        "our_location_id": null
    },
    {
        "unified_location_id": 950549700,
        "name": "Sofia Airport",
        "city": "Sofia",
        "country": "Bulgaria",
        "latitude": 42.6876763,
        "longitude": 23.4038537,
        "providers": [
            {
                "provider": "greenmotion",
                "pickup_id": "58848",
                "dropoffs": []
            }
        ],
        "our_location_id": null
    },
    {
        "unified_location_id": 2963650721,
        "name": "Sofia Airport Terminal 2",
        "city": "Sofia",
        "country": "Bulgaria",
        "latitude": 42.6934317,
        "longitude": 23.4049346,
        "providers": [
            {
                "provider": "greenmotion",
                "pickup_id": "58897",
                "dropoffs": []
            }
        ],
        "our_location_id": null
    },
    {
        "unified_location_id": 4175379767,
        "name": "Sofia Downtown",
        "city": "Sofia",
        "country": "Bulgaria",
        "latitude": 42.698207,
        "longitude": 23.308482,
        "providers": [
            {
                "provider": "greenmotion",
                "pickup_id": "58847",
                "dropoffs": []
            }
        ],
        "our_location_id": null
    },
    {
        "unified_location_id": 2297498582,
        "name": "Toronto Airport",
        "city": "Mississauga",
        "country": "Canada",
        "latitude": 43.70998563672338,
        "longitude": -79.63625418455594,
        "providers": [
            {
                "provider": "greenmotion",
                "pickup_id": "269",
                "dropoffs": []
            }
        ],
        "our_location_id": null
    },
    {
        "unified_location_id": 3454172941,
        "name": "Mississauga Downtown",
        "city": "Mississauga",
        "country": "Canada",
        "latitude": 43.70998563672338,
        "longitude": -79.63625418455594,
        "providers": [
            {
                "provider": "greenmotion",
                "pickup_id": "60633",
                "dropoffs": []
            }
        ],
        "our_location_id": null
    },
    {
        "unified_location_id": 1743849263,
        "name": "North York Downtown",
        "city": "Markham (Thornhill)",
        "country": "Canada",
        "latitude": 43.80370597782273,
        "longitude": -79.41957380398756,
        "providers": [
            {
                "provider": "greenmotion",
                "pickup_id": "61668",
                "dropoffs": []
            }
        ],
        "our_location_id": null
    },
    {
        "unified_location_id": 1307378286,
        "name": "Armenia Airport",
        "city": "Armenia",
        "country": "Colombia",
        "latitude": 4.5286443871078985,
        "longitude": -75.6814049932528,
        "providers": [
            {
                "provider": "greenmotion",
                "pickup_id": "61647",
                "dropoffs": []
            }
        ],
        "our_location_id": null
    },
    {
        "unified_location_id": 3880141552,
        "name": "Barranquilla Airport",
        "city": "Barranquilla",
        "country": "Colombia",
        "latitude": 10.889914934185853,
        "longitude": -74.77021140100642,
        "providers": [
            {
                "provider": "greenmotion",
                "pickup_id": "61595",
                "dropoffs": []
            }
        ],
        "our_location_id": null
    },
    {
        "unified_location_id": 820845800,
        "name": "Bogota Airport",
        "city": "Bogota",
        "country": "Colombia",
        "latitude": 4.686760819820806,
        "longitude": -74.12649553558238,
        "providers": [
            {
                "provider": "greenmotion",
                "pickup_id": "61598",
                "dropoffs": []
            }
        ],
        "our_location_id": null
    },
    {
        "unified_location_id": 177917703,
        "name": "Cali Airport",
        "city": "Cali",
        "country": "Colombia",
        "latitude": 3.534930042117121,
        "longitude": -76.39028597547708,
        "providers": [
            {
                "provider": "greenmotion",
                "pickup_id": "61630",
                "dropoffs": []
            }
        ],
        "our_location_id": null
    },
    {
        "unified_location_id": 3765449622,
        "name": "Cartagena Airport",
        "city": "Cartagena",
        "country": "Colombia",
        "latitude": 10.443386676331725,
        "longitude": -75.51798361783887,
        "providers": [
            {
                "provider": "greenmotion",
                "pickup_id": "61597",
                "dropoffs": []
            }
        ],
        "our_location_id": null
    },
    {
        "unified_location_id": 3401735807,
        "name": "Neiva Airport",
        "city": "Neiva",
        "country": "Colombia",
        "latitude": 2.9448491186944548,
        "longitude": -75.29178830003359,
        "providers": [
            {
                "provider": "greenmotion",
                "pickup_id": "61600",
                "dropoffs": []
            }
        ],
        "our_location_id": null
    },
    {
        "unified_location_id": 3454126766,
        "name": "Pereira Airport",
        "city": "Pereira",
        "country": "Colombia",
        "latitude": 4.81586,
        "longitude": -75.73328,
        "providers": [
            {
                "provider": "greenmotion",
                "pickup_id": "61599",
                "dropoffs": []
            }
        ],
        "our_location_id": null
    },
    {
        "unified_location_id": 2511993925,
        "name": "Rionegro Airport",
        "city": "Rionegro",
        "country": "Colombia",
        "latitude": 6.175144377362082,
        "longitude": -75.43608944798156,
        "providers": [
            {
                "provider": "greenmotion",
                "pickup_id": "61594",
                "dropoffs": []
            }
        ],
        "our_location_id": null
    },
    {
        "unified_location_id": 1642820020,
        "name": "Santa Marta Airport",
        "city": "Santa Marta",
        "country": "Colombia",
        "latitude": 11.19848141973531,
        "longitude": -74.2256619043357,
        "providers": [
            {
                "provider": "greenmotion",
                "pickup_id": "61596",
                "dropoffs": []
            }
        ],
        "our_location_id": null
    },
    {
        "unified_location_id": 344811204,
        "name": "Bucaramanga Downtown",
        "city": "Bucaramanga",
        "country": "Colombia",
        "latitude": 7.117266225818753,
        "longitude": -73.11061098922436,
        "providers": [
            {
                "provider": "greenmotion",
                "pickup_id": "61601",
                "dropoffs": []
            }
        ],
        "our_location_id": null
    },
    {
        "unified_location_id": 2444835014,
        "name": "Medellin Downtown",
        "city": "Medellin",
        "country": "Colombia",
        "latitude": 6.21015,
        "longitude": -75.57013928223623,
        "providers": [
            {
                "provider": "greenmotion",
                "pickup_id": "61593",
                "dropoffs": []
            }
        ],
        "our_location_id": null
    },
    {
        "unified_location_id": 3873412443,
        "name": "Liberia Airport",
        "city": "Guardia,",
        "country": "Costa Rica",
        "latitude": 10.572251453261012,
        "longitude": -85.58367145942069,
        "providers": [
            {
                "provider": "greenmotion",
                "pickup_id": "61411",
                "dropoffs": []
            }
        ],
        "our_location_id": null
    },
    {
        "unified_location_id": 1979497382,
        "name": "San Jose Airport",
        "city": "Alajuela",
        "country": "Costa Rica",
        "latitude": 10.003063102424242,
        "longitude": -84.2078272590781,
        "providers": [
            {
                "provider": "greenmotion",
                "pickup_id": "61410",
                "dropoffs": []
            },
            {
                "provider": "usave",
                "pickup_id": "61377",
                "dropoffs": []
            }
        ],
        "our_location_id": null
    },
    {
        "unified_location_id": 1529768388,
        "name": "San Jose downtown",
        "city": "San Jose",
        "country": "Costa Rica",
        "latitude": 9.926397339429098,
        "longitude": -84.09472761629712,
        "providers": [
            {
                "provider": "greenmotion",
                "pickup_id": "61412",
                "dropoffs": []
            }
        ],
        "our_location_id": null
    },
    {
        "unified_location_id": 2629194380,
        "name": "Felix Houphouet Boigny International Airport",
        "city": "Abidjan",
        "country": "Ivory Coast",
        "latitude": 5.254322753312705,
        "longitude": -3.93240247832467,
        "providers": [
            {
                "provider": "greenmotion",
                "pickup_id": "61324",
                "dropoffs": []
            }
        ],
        "our_location_id": null
    },
    {
        "unified_location_id": 2410730701,
        "name": "Abidjan Downtown",
        "city": "Abidjan",
        "country": "Ivory Coast",
        "latitude": 5.386466303157576,
        "longitude": -3.982680214329789,
        "providers": [
            {
                "provider": "greenmotion",
                "pickup_id": "61327",
                "dropoffs": []
            }
        ],
        "our_location_id": null
    },
    {
        "unified_location_id": 2663944349,
        "name": "Dubrovnik Airport",
        "city": "Dubrovnik",
        "country": "Croatia",
        "latitude": 42.559752,
        "longitude": 18.260932,
        "providers": [
            {
                "provider": "greenmotion",
                "pickup_id": "246",
                "dropoffs": []
            }
        ],
        "our_location_id": null
    },
    {
        "unified_location_id": 652190543,
        "name": "Split Airport",
        "city": "Split",
        "country": "Croatia",
        "latitude": 43.536693,
        "longitude": 16.299544,
        "providers": [
            {
                "provider": "greenmotion",
                "pickup_id": "297",
                "dropoffs": []
            }
        ],
        "our_location_id": null
    },
    {
        "unified_location_id": 3127798206,
        "name": "Zadar Airport",
        "city": "Zadar",
        "country": "Croatia",
        "latitude": 44.107956,
        "longitude": 15.3417,
        "providers": [
            {
                "provider": "greenmotion",
                "pickup_id": "298",
                "dropoffs": []
            }
        ],
        "our_location_id": null
    },
    {
        "unified_location_id": 3502039496,
        "name": "Zagreb Airport",
        "city": "Petina",
        "country": "Croatia",
        "latitude": 45.759445,
        "longitude": 16.099119,
        "providers": [
            {
                "provider": "greenmotion",
                "pickup_id": "248",
                "dropoffs": []
            }
        ],
        "our_location_id": null
    },
    {
        "unified_location_id": 2435646763,
        "name": "ACI Marina Dubrovnik",
        "city": "Dubrovnik",
        "country": "Croatia",
        "latitude": 42.67119582593996,
        "longitude": 18.12565005816492,
        "providers": [
            {
                "provider": "greenmotion",
                "pickup_id": "61234",
                "dropoffs": []
            }
        ],
        "our_location_id": null
    },
    {
        "unified_location_id": 2289778016,
        "name": "ACI Marina Korcula",
        "city": "Korcula",
        "country": "Croatia",
        "latitude": 42.9588344016616,
        "longitude": 17.1357331797322,
        "providers": [
            {
                "provider": "greenmotion",
                "pickup_id": "61237",
                "dropoffs": []
            }
        ],
        "our_location_id": null
    },
    {
        "unified_location_id": 3405426999,
        "name": "ACI Marina Slano",
        "city": "Slano",
        "country": "Croatia",
        "latitude": 42.783510882042435,
        "longitude": 17.889398672708523,
        "providers": [
            {
                "provider": "greenmotion",
                "pickup_id": "61236",
                "dropoffs": []
            }
        ],
        "our_location_id": null
    },
    {
        "unified_location_id": 3939415243,
        "name": "Dubrovnik Downtown",
        "city": "Dubrovnik",
        "country": "Croatia",
        "latitude": 42.64688692933757,
        "longitude": 18.092126595878653,
        "providers": [
            {
                "provider": "greenmotion",
                "pickup_id": "245",
                "dropoffs": []
            }
        ],
        "our_location_id": null
    },
    {
        "unified_location_id": 1088451011,
        "name": "Samobor Downtown",
        "city": "Samobor",
        "country": "Croatia",
        "latitude": 45.796488,
        "longitude": 15.728981,
        "providers": [
            {
                "provider": "greenmotion",
                "pickup_id": "295",
                "dropoffs": []
            }
        ],
        "our_location_id": null
    },
    {
        "unified_location_id": 2192248832,
        "name": "Split Downtown",
        "city": "Split",
        "country": "Croatia",
        "latitude": 43.506299,
        "longitude": 16.441773,
        "providers": [
            {
                "provider": "greenmotion",
                "pickup_id": "312",
                "dropoffs": []
            }
        ],
        "our_location_id": null
    },
    {
        "unified_location_id": 4051789249,
        "name": "Zagreb Downtown",
        "city": "Zagreb",
        "country": "Croatia",
        "latitude": 45.80367008736639,
        "longitude": 15.958229392163366,
        "providers": [
            {
                "provider": "greenmotion",
                "pickup_id": "247",
                "dropoffs": []
            }
        ],
        "our_location_id": null
    },
    {
        "unified_location_id": 483506157,
        "name": "Zagreb Jankomir",
        "city": "Zagreb",
        "country": "Croatia",
        "latitude": 45.79852460000001,
        "longitude": 15.858114699999987,
        "providers": [
            {
                "provider": "greenmotion",
                "pickup_id": "57804",
                "dropoffs": []
            }
        ],
        "our_location_id": null
    },
    {
        "unified_location_id": 1840007137,
        "name": "Cura\u00e7ao International Airport",
        "city": "Willemstad",
        "country": "Curacao",
        "latitude": 12.110146454569318,
        "longitude": -68.89614879695263,
        "providers": [
            {
                "provider": "greenmotion",
                "pickup_id": "61209",
                "dropoffs": []
            }
        ],
        "our_location_id": null
    },
    {
        "unified_location_id": 3394411771,
        "name": "Larnaca Airport",
        "city": "Larnaca",
        "country": "Cyprus",
        "latitude": 34.881083,
        "longitude": 33.583569,
        "providers": [
            {
                "provider": "greenmotion",
                "pickup_id": "94",
                "dropoffs": []
            },
            {
                "provider": "usave",
                "pickup_id": "94",
                "dropoffs": []
            }
        ],
        "our_location_id": null
    },
    {
        "unified_location_id": 2023619756,
        "name": "Paphos Airport",
        "city": "Paphos",
        "country": "Cyprus",
        "latitude": 34.726491,
        "longitude": 32.514677,
        "providers": [
            {
                "provider": "greenmotion",
                "pickup_id": "93",
                "dropoffs": []
            },
            {
                "provider": "usave",
                "pickup_id": "93",
                "dropoffs": []
            }
        ],
        "our_location_id": null
    },
    {
        "unified_location_id": 1675784451,
        "name": "Ayia Napa Downtown",
        "city": "Ayia Napa",
        "country": "Cyprus",
        "latitude": 34.9885917360585,
        "longitude": 34.0008411728794,
        "providers": [
            {
                "provider": "greenmotion",
                "pickup_id": "61335",
                "dropoffs": []
            }
        ],
        "our_location_id": null
    },
    {
        "unified_location_id": 1313598122,
        "name": "Larnaca Downtown",
        "city": "Larnaca",
        "country": "Cyprus",
        "latitude": 34.881083,
        "longitude": 33.583569,
        "providers": [
            {
                "provider": "greenmotion",
                "pickup_id": "60775",
                "dropoffs": []
            }
        ],
        "our_location_id": null
    },
    {
        "unified_location_id": 1956744996,
        "name": "Limassol Downtown",
        "city": "Limassol",
        "country": "Cyprus",
        "latitude": 34.692858,
        "longitude": 33.081007,
        "providers": [
            {
                "provider": "greenmotion",
                "pickup_id": "60776",
                "dropoffs": []
            }
        ],
        "our_location_id": null
    },
    {
        "unified_location_id": 508719973,
        "name": "Prague Airport",
        "city": "Prague",
        "country": "Czech Republic",
        "latitude": 50.1065,
        "longitude": 14.269666666666668,
        "providers": [
            {
                "provider": "greenmotion",
                "pickup_id": "338",
                "dropoffs": []
            },
            {
                "provider": "usave",
                "pickup_id": "338",
                "dropoffs": []
            }
        ],
        "our_location_id": null
    },
    {
        "unified_location_id": 2236725213,
        "name": "Prague Bus Station Florenc",
        "city": "Prague",
        "country": "Czech Republic",
        "latitude": 50.089739,
        "longitude": 14.437147,
        "providers": [
            {
                "provider": "greenmotion",
                "pickup_id": "365",
                "dropoffs": []
            }
        ],
        "our_location_id": null
    },
    {
        "unified_location_id": 3821041519,
        "name": "Hillerod Downtown",
        "city": "Hillerod",
        "country": "Denmark",
        "latitude": 55.93294498102992,
        "longitude": 12.274163410895257,
        "providers": [
            {
                "provider": "greenmotion",
                "pickup_id": "61694",
                "dropoffs": []
            }
        ],
        "our_location_id": null
    },
    {
        "unified_location_id": 1008548714,
        "name": "Las Americas International Airport",
        "city": "Santo Domingo Este",
        "country": "Dominican Republic",
        "latitude": 18.43066189334448,
        "longitude": -69.67665346976094,
        "providers": [
            {
                "provider": "greenmotion",
                "pickup_id": "61644",
                "dropoffs": []
            }
        ],
        "our_location_id": null
    },
    {
        "unified_location_id": 1639373190,
        "name": "Punta Cana International Airport",
        "city": "Punta Cana",
        "country": "Dominican Republic",
        "latitude": 18.6099925,
        "longitude": -68.3895382,
        "providers": [
            {
                "provider": "greenmotion",
                "pickup_id": "346",
                "dropoffs": []
            }
        ],
        "our_location_id": null
    },
    {
        "unified_location_id": 2670704556,
        "name": "Cairo International Airport",
        "city": "Cairo",
        "country": "Egypt",
        "latitude": 30.127462724364893,
        "longitude": 31.40446347844616,
        "providers": [
            {
                "provider": "greenmotion",
                "pickup_id": "61537",
                "dropoffs": []
            }
        ],
        "our_location_id": null
    },
    {
        "unified_location_id": 2563464161,
        "name": "Hurghada Airport",
        "city": "Hurghada",
        "country": "Egypt",
        "latitude": 27.1804987,
        "longitude": 33.8049911,
        "providers": [
            {
                "provider": "greenmotion",
                "pickup_id": "61540",
                "dropoffs": []
            }
        ],
        "our_location_id": null
    },
    {
        "unified_location_id": 1225806455,
        "name": "Luxor International Airport",
        "city": "Luxor",
        "country": "Egypt",
        "latitude": 25.6746923,
        "longitude": 32.6973626,
        "providers": [
            {
                "provider": "greenmotion",
                "pickup_id": "61542",
                "dropoffs": []
            }
        ],
        "our_location_id": null
    },
    {
        "unified_location_id": 3960189743,
        "name": "Marsa Alam International Airport",
        "city": "Marsa Alam",
        "country": "Egypt",
        "latitude": 25.5550566,
        "longitude": 34.5861824,
        "providers": [
            {
                "provider": "greenmotion",
                "pickup_id": "61543",
                "dropoffs": []
            }
        ],
        "our_location_id": null
    },
    {
        "unified_location_id": 2596455762,
        "name": "Sphinx International Airport",
        "city": "Giza",
        "country": "Egypt",
        "latitude": 30.107808990753135,
        "longitude": 30.888289171681794,
        "providers": [
            {
                "provider": "greenmotion",
                "pickup_id": "61673",
                "dropoffs": []
            }
        ],
        "our_location_id": null
    },
    {
        "unified_location_id": 2180589233,
        "name": "Borg Al Arab",
        "city": "Alexandria",
        "country": "Egypt",
        "latitude": 30.9324146,
        "longitude": 29.6918503,
        "providers": [
            {
                "provider": "greenmotion",
                "pickup_id": "61539",
                "dropoffs": []
            }
        ],
        "our_location_id": null
    },
    {
        "unified_location_id": 85765013,
        "name": "Cairo Heliopolis",
        "city": "Heliopolis",
        "country": "Egypt",
        "latitude": 30.1050583,
        "longitude": 31.3785005,
        "providers": [
            {
                "provider": "greenmotion",
                "pickup_id": "61538",
                "dropoffs": []
            }
        ],
        "our_location_id": null
    },
    {
        "unified_location_id": 3011217943,
        "name": "Hurghada Downtown",
        "city": "Hurghada",
        "country": "Egypt",
        "latitude": 27.212463515626492,
        "longitude": 33.84086859633732,
        "providers": [
            {
                "provider": "greenmotion",
                "pickup_id": "61541",
                "dropoffs": []
            }
        ],
        "our_location_id": null
    },
    {
        "unified_location_id": 423922829,
        "name": "Tallinn Airport",
        "city": "Tallinn",
        "country": "Estonia",
        "latitude": 59.420493,
        "longitude": 24.79857,
        "providers": [
            {
                "provider": "greenmotion",
                "pickup_id": "58189",
                "dropoffs": []
            },
            {
                "provider": "usave",
                "pickup_id": "58189",
                "dropoffs": []
            }
        ],
        "our_location_id": null
    },
    {
        "unified_location_id": 3985819617,
        "name": "Tallinn Bus Station",
        "city": "Tallinn",
        "country": "Estonia",
        "latitude": 59.4279905,
        "longitude": 24.772810800000002,
        "providers": [
            {
                "provider": "greenmotion",
                "pickup_id": "58190",
                "dropoffs": []
            },
            {
                "provider": "usave",
                "pickup_id": "58190",
                "dropoffs": []
            }
        ],
        "our_location_id": null
    },
    {
        "unified_location_id": 4160628915,
        "name": "Tallinn Downtown",
        "city": "Tallinn",
        "country": "Estonia",
        "latitude": 59.432035,
        "longitude": 24.753206,
        "providers": [
            {
                "provider": "greenmotion",
                "pickup_id": "58192",
                "dropoffs": []
            }
        ],
        "our_location_id": null
    },
    {
        "unified_location_id": 3112643651,
        "name": "Tallinn Sea Port",
        "city": "Tallinn",
        "country": "Estonia",
        "latitude": 59.443452,
        "longitude": 24.759904,
        "providers": [
            {
                "provider": "greenmotion",
                "pickup_id": "58191",
                "dropoffs": []
            },
            {
                "provider": "usave",
                "pickup_id": "58191",
                "dropoffs": []
            }
        ],
        "our_location_id": null
    },
    {
        "unified_location_id": 879081631,
        "name": "Tallinn Train Station",
        "city": "Tallinn",
        "country": "Estonia",
        "latitude": 59.4390696,
        "longitude": 24.736119499999973,
        "providers": [
            {
                "provider": "greenmotion",
                "pickup_id": "58203",
                "dropoffs": []
            }
        ],
        "our_location_id": null
    },
    {
        "unified_location_id": 499035139,
        "name": "Addis Ababa Bole International Airport",
        "city": "Addis Ababa",
        "country": "Ethiopia",
        "latitude": 8.995529172712343,
        "longitude": 38.787097202093896,
        "providers": [
            {
                "provider": "greenmotion",
                "pickup_id": "61632",
                "dropoffs": []
            }
        ],
        "our_location_id": null
    },
    {
        "unified_location_id": 626544029,
        "name": "Nadi International Airport",
        "city": "Nadi City Subdivision",
        "country": "Fiji",
        "latitude": -17.78302571791418,
        "longitude": 177.44924973100527,
        "providers": [
            {
                "provider": "greenmotion",
                "pickup_id": "61690",
                "dropoffs": []
            }
        ],
        "our_location_id": null
    },
    {
        "unified_location_id": 3070070547,
        "name": "Ivalo Airport",
        "city": "Inari",
        "country": "Finland",
        "latitude": 68.608233,
        "longitude": 27.403616,
        "providers": [
            {
                "provider": "greenmotion",
                "pickup_id": "321",
                "dropoffs": []
            }
        ],
        "our_location_id": null
    },
    {
        "unified_location_id": 2593543132,
        "name": "Kittila Airport",
        "city": "Kittila",
        "country": "Finland",
        "latitude": 67.6955833,
        "longitude": 24.85910555555556,
        "providers": [
            {
                "provider": "greenmotion",
                "pickup_id": "330",
                "dropoffs": []
            }
        ],
        "our_location_id": null
    },
    {
        "unified_location_id": 97605686,
        "name": "Oulu Airport",
        "city": "Oulu",
        "country": "Finland",
        "latitude": 64.928863,
        "longitude": 25.372482,
        "providers": [
            {
                "provider": "greenmotion",
                "pickup_id": "60750",
                "dropoffs": []
            }
        ],
        "our_location_id": null
    },
    {
        "unified_location_id": 1061326137,
        "name": "Rovaniemi Airport",
        "city": "Rovaniemi",
        "country": "Finland",
        "latitude": 66.563234,
        "longitude": 25.830089,
        "providers": [
            {
                "provider": "greenmotion",
                "pickup_id": "272",
                "dropoffs": []
            }
        ],
        "our_location_id": null
    },
    {
        "unified_location_id": 732945235,
        "name": "Tampere Airport",
        "city": "Tampere",
        "country": "Finland",
        "latitude": 61.417444,
        "longitude": 23.60463,
        "providers": [
            {
                "provider": "greenmotion",
                "pickup_id": "270",
                "dropoffs": []
            }
        ],
        "our_location_id": null
    },
    {
        "unified_location_id": 3930165457,
        "name": "Helsinki Airport - Vantaa",
        "city": "Vantaa",
        "country": "Finland",
        "latitude": 60.31665655347501,
        "longitude": 24.965932207486542,
        "providers": [
            {
                "provider": "greenmotion",
                "pickup_id": "267",
                "dropoffs": []
            }
        ],
        "our_location_id": null
    },
    {
        "unified_location_id": 2927491612,
        "name": "Helsinki Downtown - Hotel Valo",
        "city": "Helsinki",
        "country": "Finland",
        "latitude": 60.205729,
        "longitude": 24.899842,
        "providers": [
            {
                "provider": "greenmotion",
                "pickup_id": "60771",
                "dropoffs": []
            }
        ],
        "our_location_id": null
    },
    {
        "unified_location_id": 2493201349,
        "name": "Oulu Railway Station",
        "city": "Oulu",
        "country": "Finland",
        "latitude": 65.011408,
        "longitude": 25.483778,
        "providers": [
            {
                "provider": "greenmotion",
                "pickup_id": "60751",
                "dropoffs": []
            }
        ],
        "our_location_id": null
    },
    {
        "unified_location_id": 688948149,
        "name": "Rovaniemi Railway Station",
        "city": "Rovaniemi",
        "country": "Finland",
        "latitude": 66.4986077,
        "longitude": 25.7080713,
        "providers": [
            {
                "provider": "greenmotion",
                "pickup_id": "276",
                "dropoffs": []
            }
        ],
        "our_location_id": null
    },
    {
        "unified_location_id": 44042954,
        "name": "Batumi International Airport",
        "city": "Batumi",
        "country": "Georgia",
        "latitude": 41.60678,
        "longitude": 41.61085,
        "providers": [
            {
                "provider": "greenmotion",
                "pickup_id": "61181",
                "dropoffs": []
            }
        ],
        "our_location_id": null
    },
    {
        "unified_location_id": 1480649477,
        "name": "Kutaisi International Airport",
        "city": "Kutaisi",
        "country": "Georgia",
        "latitude": 42.18207,
        "longitude": 42.4656,
        "providers": [
            {
                "provider": "greenmotion",
                "pickup_id": "61180",
                "dropoffs": []
            }
        ],
        "our_location_id": null
    },
    {
        "unified_location_id": 1962301928,
        "name": "Tbilisi International Airport",
        "city": "Tbilisi",
        "country": "Georgia",
        "latitude": 41.669598519990025,
        "longitude": 44.96446608367497,
        "providers": [
            {
                "provider": "greenmotion",
                "pickup_id": "61178",
                "dropoffs": []
            }
        ],
        "our_location_id": null
    },
    {
        "unified_location_id": 545380842,
        "name": "Tbilisi Downtown",
        "city": "Tbilisi",
        "country": "Georgia",
        "latitude": 41.689650291720746,
        "longitude": 44.80940505166678,
        "providers": [
            {
                "provider": "greenmotion",
                "pickup_id": "61179",
                "dropoffs": []
            }
        ],
        "our_location_id": null
    },
    {
        "unified_location_id": 945508712,
        "name": "Dusseldorf Airport",
        "city": "Dusseldorf",
        "country": "Germany",
        "latitude": 51.286381394435175,
        "longitude": 6.802297025991776,
        "providers": [
            {
                "provider": "greenmotion",
                "pickup_id": "61701",
                "dropoffs": []
            }
        ],
        "our_location_id": null
    },
    {
        "unified_location_id": 4109995405,
        "name": "Hamburg Airport",
        "city": "Hamburg",
        "country": "Germany",
        "latitude": 53.63106397342853,
        "longitude": 10.005727119920438,
        "providers": [
            {
                "provider": "greenmotion",
                "pickup_id": "61627",
                "dropoffs": []
            }
        ],
        "our_location_id": null
    },
    {
        "unified_location_id": 666837401,
        "name": "Dusseldorf Downtown",
        "city": "Dusseldorf",
        "country": "Germany",
        "latitude": 51.286381394435175,
        "longitude": 6.802297025991776,
        "providers": [
            {
                "provider": "greenmotion",
                "pickup_id": "61729",
                "dropoffs": []
            }
        ],
        "our_location_id": null
    },
    {
        "unified_location_id": 2154755742,
        "name": "Athens International Airport",
        "city": "Athens",
        "country": "Greece",
        "latitude": 37.89269387532633,
        "longitude": 23.9198523064082,
        "providers": [
            {
                "provider": "greenmotion",
                "pickup_id": "143",
                "dropoffs": []
            }
        ],
        "our_location_id": null
    },
    {
        "unified_location_id": 4122338995,
        "name": "Corfu International Airport",
        "city": "Corfu",
        "country": "Greece",
        "latitude": 39.607867,
        "longitude": 19.914663,
        "providers": [
            {
                "provider": "greenmotion",
                "pickup_id": "147",
                "dropoffs": []
            }
        ],
        "our_location_id": null
    },
    {
        "unified_location_id": 3522684138,
        "name": "Crete - Chania Airport",
        "city": "Chania",
        "country": "Greece",
        "latitude": 35.540805,
        "longitude": 24.138685,
        "providers": [
            {
                "provider": "greenmotion",
                "pickup_id": "173",
                "dropoffs": []
            }
        ],
        "our_location_id": null
    },
    {
        "unified_location_id": 612845359,
        "name": "Crete - Heraklion Airport",
        "city": "Heraklion",
        "country": "Greece",
        "latitude": 35.336883,
        "longitude": 25.172922,
        "providers": [
            {
                "provider": "greenmotion",
                "pickup_id": "171",
                "dropoffs": []
            }
        ],
        "our_location_id": null
    },
    {
        "unified_location_id": 2330157910,
        "name": "Kalamata Airport",
        "city": "Kalamatas",
        "country": "Greece",
        "latitude": 37.0549,
        "longitude": 22.0341,
        "providers": [
            {
                "provider": "greenmotion",
                "pickup_id": "375",
                "dropoffs": []
            }
        ],
        "our_location_id": null
    },
    {
        "unified_location_id": 2009340305,
        "name": "Kefalonia - Airport",
        "city": "Kefalonia",
        "country": "Greece",
        "latitude": 38.1188,
        "longitude": 20.507225,
        "providers": [
            {
                "provider": "greenmotion",
                "pickup_id": "313",
                "dropoffs": []
            }
        ],
        "our_location_id": null
    },
    {
        "unified_location_id": 2289395531,
        "name": "Kos Airport",
        "city": "Antimachia",
        "country": "Greece",
        "latitude": 36.801541,
        "longitude": 27.090676,
        "providers": [
            {
                "provider": "greenmotion",
                "pickup_id": "307",
                "dropoffs": []
            }
        ],
        "our_location_id": null
    },
    {
        "unified_location_id": 3234307672,
        "name": "Mykonos Airport",
        "city": "Mykonos",
        "country": "Greece",
        "latitude": 37.430135,
        "longitude": 25.348635,
        "providers": [
            {
                "provider": "greenmotion",
                "pickup_id": "306",
                "dropoffs": []
            }
        ],
        "our_location_id": null
    },
    {
        "unified_location_id": 2357855575,
        "name": "Naxos Airport",
        "city": "Chora Naxou",
        "country": "Greece",
        "latitude": 37.0990624,
        "longitude": 25.3768975,
        "providers": [
            {
                "provider": "greenmotion",
                "pickup_id": "61714",
                "dropoffs": []
            }
        ],
        "our_location_id": null
    },
    {
        "unified_location_id": 2122427260,
        "name": "Paros Airport",
        "city": "Paros",
        "country": "Greece",
        "latitude": 37.010719,
        "longitude": 25.129832,
        "providers": [
            {
                "provider": "greenmotion",
                "pickup_id": "61125",
                "dropoffs": []
            }
        ],
        "our_location_id": null
    },
    {
        "unified_location_id": 1927885164,
        "name": "Preveza Aktion Lefkada Airport",
        "city": "Preveza",
        "country": "Greece",
        "latitude": 38.931044,
        "longitude": 20.771713,
        "providers": [
            {
                "provider": "greenmotion",
                "pickup_id": "149",
                "dropoffs": []
            }
        ],
        "our_location_id": null
    },
    {
        "unified_location_id": 930359659,
        "name": "Rhodes Airport",
        "city": "Rhodes",
        "country": "Greece",
        "latitude": 36.382812,
        "longitude": 28.134166,
        "providers": [
            {
                "provider": "greenmotion",
                "pickup_id": "250",
                "dropoffs": []
            }
        ],
        "our_location_id": null
    },
    {
        "unified_location_id": 3753550825,
        "name": "Samos Airport",
        "city": "Samos",
        "country": "Greece",
        "latitude": 37.690505,
        "longitude": 26.938236,
        "providers": [
            {
                "provider": "greenmotion",
                "pickup_id": "332",
                "dropoffs": []
            }
        ],
        "our_location_id": null
    },
    {
        "unified_location_id": 3042566373,
        "name": "Santorini Airport",
        "city": "",
        "country": "Greece",
        "latitude": 36.40050728377036,
        "longitude": 25.477683306533176,
        "providers": [
            {
                "provider": "greenmotion",
                "pickup_id": "61577",
                "dropoffs": []
            }
        ],
        "our_location_id": null
    },
    {
        "unified_location_id": 4155859560,
        "name": "Skiathos Airport",
        "city": "Skiathos",
        "country": "Greece",
        "latitude": 39.176462,
        "longitude": 23.50046,
        "providers": [
            {
                "provider": "greenmotion",
                "pickup_id": "381",
                "dropoffs": []
            }
        ],
        "our_location_id": null
    },
    {
        "unified_location_id": 3750948617,
        "name": "Thessaloniki Airport",
        "city": "Thessaloniki",
        "country": "Greece",
        "latitude": 40.521912772365596,
        "longitude": 22.995170125494894,
        "providers": [
            {
                "provider": "greenmotion",
                "pickup_id": "144",
                "dropoffs": []
            }
        ],
        "our_location_id": null
    },
    {
        "unified_location_id": 4205679809,
        "name": "Volos Airport",
        "city": "N. Aghialos",
        "country": "Greece",
        "latitude": 39.219225,
        "longitude": 22.792245,
        "providers": [
            {
                "provider": "greenmotion",
                "pickup_id": "384",
                "dropoffs": []
            }
        ],
        "our_location_id": null
    },
    {
        "unified_location_id": 3447665818,
        "name": "Zakynthos Airport",
        "city": "Zakynthos",
        "country": "Greece",
        "latitude": 37.75417,
        "longitude": 20.888564,
        "providers": [
            {
                "provider": "greenmotion",
                "pickup_id": "161",
                "dropoffs": []
            }
        ],
        "our_location_id": null
    },
    {
        "unified_location_id": 91732503,
        "name": "Athens 114 Leoforos Varis Koropiou",
        "city": "Athens",
        "country": "Greece",
        "latitude": 37.871975,
        "longitude": 23.858832,
        "providers": [
            {
                "provider": "greenmotion",
                "pickup_id": "56720",
                "dropoffs": []
            }
        ],
        "our_location_id": null
    },
    {
        "unified_location_id": 3340866677,
        "name": "Athens Downtown",
        "city": "Athens",
        "country": "Greece",
        "latitude": 37.966844,
        "longitude": 23.729824,
        "providers": [
            {
                "provider": "greenmotion",
                "pickup_id": "54748",
                "dropoffs": []
            }
        ],
        "our_location_id": null
    },
    {
        "unified_location_id": 2856412204,
        "name": "Athens Koropi",
        "city": "Athens",
        "country": "Greece",
        "latitude": 37.871975,
        "longitude": 23.858832,
        "providers": [
            {
                "provider": "greenmotion",
                "pickup_id": "186",
                "dropoffs": []
            }
        ],
        "our_location_id": null
    },
    {
        "unified_location_id": 966364275,
        "name": "Athens Syngrou Avenue",
        "city": "Athens",
        "country": "Greece",
        "latitude": 37.966844,
        "longitude": 23.729824,
        "providers": [
            {
                "provider": "greenmotion",
                "pickup_id": "54749",
                "dropoffs": []
            }
        ],
        "our_location_id": null
    },
    {
        "unified_location_id": 1389388884,
        "name": "Corfu Downtown",
        "city": "Corfu",
        "country": "Greece",
        "latitude": 39.626253,
        "longitude": 19.903957,
        "providers": [
            {
                "provider": "greenmotion",
                "pickup_id": "146",
                "dropoffs": []
            }
        ],
        "our_location_id": null
    },
    {
        "unified_location_id": 2089933810,
        "name": "Corfu Port",
        "city": "Corfu",
        "country": "Greece",
        "latitude": 39.626253,
        "longitude": 19.903957,
        "providers": [
            {
                "provider": "greenmotion",
                "pickup_id": "206",
                "dropoffs": []
            }
        ],
        "our_location_id": null
    },
    {
        "unified_location_id": 3791527461,
        "name": "Crete - Agios Nikolaos",
        "city": "Agios Nikolaos - Crete",
        "country": "Greece",
        "latitude": 35.193518,
        "longitude": 25.717871,
        "providers": [
            {
                "provider": "greenmotion",
                "pickup_id": "303",
                "dropoffs": []
            }
        ],
        "our_location_id": null
    },
    {
        "unified_location_id": 3474663868,
        "name": "Crete - Heraklion Downtown",
        "city": "Heraklion",
        "country": "Greece",
        "latitude": 35.3374,
        "longitude": 25.165385,
        "providers": [
            {
                "provider": "greenmotion",
                "pickup_id": "304",
                "dropoffs": []
            }
        ],
        "our_location_id": null
    },
    {
        "unified_location_id": 2614839630,
        "name": "Crete - Heraklion Port",
        "city": "Heraklion",
        "country": "Greece",
        "latitude": 35.3374,
        "longitude": 25.165385,
        "providers": [
            {
                "provider": "greenmotion",
                "pickup_id": "305",
                "dropoffs": []
            }
        ],
        "our_location_id": null
    },
    {
        "unified_location_id": 1919088234,
        "name": "Crete - Rethymno Adelianos Kampos",
        "city": "Adelianos",
        "country": "Greece",
        "latitude": 35.374275,
        "longitude": 24.552777,
        "providers": [
            {
                "provider": "greenmotion",
                "pickup_id": "172",
                "dropoffs": []
            }
        ],
        "our_location_id": null
    },
    {
        "unified_location_id": 3802113055,
        "name": "Igoumenitsa Downtown",
        "city": "Igoumenitsa",
        "country": "Greece",
        "latitude": 39.498733,
        "longitude": 20.264032,
        "providers": [
            {
                "provider": "greenmotion",
                "pickup_id": "240",
                "dropoffs": []
            }
        ],
        "our_location_id": null
    },
    {
        "unified_location_id": 997732314,
        "name": "Igoumenitsa Port",
        "city": "Igoumenista",
        "country": "Greece",
        "latitude": 39.498733,
        "longitude": 20.264032,
        "providers": [
            {
                "provider": "greenmotion",
                "pickup_id": "153",
                "dropoffs": []
            }
        ],
        "our_location_id": null
    },
    {
        "unified_location_id": 3865871360,
        "name": "Kalamata Downtown",
        "city": "Kalamatas",
        "country": "Greece",
        "latitude": 37,
        "longitude": 22,
        "providers": [
            {
                "provider": "greenmotion",
                "pickup_id": "376",
                "dropoffs": []
            }
        ],
        "our_location_id": null
    },
    {
        "unified_location_id": 60249929,
        "name": "Kalamata Port",
        "city": "Kalamatas",
        "country": "Greece",
        "latitude": 37,
        "longitude": 22,
        "providers": [
            {
                "provider": "greenmotion",
                "pickup_id": "377",
                "dropoffs": []
            }
        ],
        "our_location_id": null
    },
    {
        "unified_location_id": 2444298386,
        "name": "Kefalonia - Argostoli Port - Downtown",
        "city": "Kefalonia",
        "country": "Greece",
        "latitude": 38.1188,
        "longitude": 20.507225,
        "providers": [
            {
                "provider": "greenmotion",
                "pickup_id": "315",
                "dropoffs": []
            }
        ],
        "our_location_id": null
    },
    {
        "unified_location_id": 948994446,
        "name": "Kefalonia - Lassi Downtown",
        "city": "Kefalonia",
        "country": "Greece",
        "latitude": 38.1188,
        "longitude": 20.507225,
        "providers": [
            {
                "provider": "greenmotion",
                "pickup_id": "314",
                "dropoffs": []
            }
        ],
        "our_location_id": null
    },
    {
        "unified_location_id": 2492645770,
        "name": "Kefalonia - Lixouri Port",
        "city": "Kefalonia",
        "country": "Greece",
        "latitude": 38.1188,
        "longitude": 20.507225,
        "providers": [
            {
                "provider": "greenmotion",
                "pickup_id": "319",
                "dropoffs": []
            }
        ],
        "our_location_id": null
    },
    {
        "unified_location_id": 4117618475,
        "name": "Kefalonia - Pessada Port",
        "city": "Kefalonia",
        "country": "Greece",
        "latitude": 38.1188,
        "longitude": 20.507225,
        "providers": [
            {
                "provider": "greenmotion",
                "pickup_id": "320",
                "dropoffs": []
            }
        ],
        "our_location_id": null
    },
    {
        "unified_location_id": 2545404307,
        "name": "Kefalonia - Poros Port",
        "city": "Kefalonia",
        "country": "Greece",
        "latitude": 38.1188,
        "longitude": 20.507225,
        "providers": [
            {
                "provider": "greenmotion",
                "pickup_id": "316",
                "dropoffs": []
            }
        ],
        "our_location_id": null
    },
    {
        "unified_location_id": 3670724739,
        "name": "Kefalonia - Sami Port",
        "city": "Kefalonia",
        "country": "Greece",
        "latitude": 38.1188,
        "longitude": 20.507225,
        "providers": [
            {
                "provider": "greenmotion",
                "pickup_id": "317",
                "dropoffs": []
            }
        ],
        "our_location_id": null
    },
    {
        "unified_location_id": 2762295342,
        "name": "Lefkada Agios Nikitas",
        "city": "LEFKAS",
        "country": "Greece",
        "latitude": 38.787463,
        "longitude": 20.612551,
        "providers": [
            {
                "provider": "greenmotion",
                "pickup_id": "151",
                "dropoffs": []
            }
        ],
        "our_location_id": null
    },
    {
        "unified_location_id": 1495713172,
        "name": "Lefkada Downtown",
        "city": "Lefkada",
        "country": "Greece",
        "latitude": 38.834337,
        "longitude": 20.71048,
        "providers": [
            {
                "provider": "greenmotion",
                "pickup_id": "150",
                "dropoffs": []
            }
        ],
        "our_location_id": null
    },
    {
        "unified_location_id": 3544478255,
        "name": "Lefkada Nidri",
        "city": "LEFKAS",
        "country": "Greece",
        "latitude": 38.709512,
        "longitude": 20.713122,
        "providers": [
            {
                "provider": "greenmotion",
                "pickup_id": "152",
                "dropoffs": []
            }
        ],
        "our_location_id": null
    },
    {
        "unified_location_id": 2477595268,
        "name": "Lefkada Vasilliki Port",
        "city": "Lefkas",
        "country": "Greece",
        "latitude": 38.709512,
        "longitude": 20.713122,
        "providers": [
            {
                "provider": "greenmotion",
                "pickup_id": "239",
                "dropoffs": []
            }
        ],
        "our_location_id": null
    },
    {
        "unified_location_id": 798299796,
        "name": "Mykonos Old Port",
        "city": "Mykonos",
        "country": "Greece",
        "latitude": 37.4499115,
        "longitude": 25.3303271,
        "providers": [
            {
                "provider": "greenmotion",
                "pickup_id": "331",
                "dropoffs": []
            }
        ],
        "our_location_id": null
    },
    {
        "unified_location_id": 2490095025,
        "name": "Naxos Port",
        "city": "Chora Naxou",
        "country": "Greece",
        "latitude": 37.0990624,
        "longitude": 25.3768975,
        "providers": [
            {
                "provider": "greenmotion",
                "pickup_id": "61715",
                "dropoffs": []
            }
        ],
        "our_location_id": null
    },
    {
        "unified_location_id": 1410929436,
        "name": "Paros Port",
        "city": "Central Port of Parikia Paros",
        "country": "Greece",
        "latitude": 37.0859801,
        "longitude": 25.1487478,
        "providers": [
            {
                "provider": "greenmotion",
                "pickup_id": "61431",
                "dropoffs": []
            }
        ],
        "our_location_id": null
    },
    {
        "unified_location_id": 728005114,
        "name": "Preveza Aktion Marinas (Aktio, Cleopatra, Ionian)",
        "city": "Preveza",
        "country": "Greece",
        "latitude": 38.931044,
        "longitude": 20.771713,
        "providers": [
            {
                "provider": "greenmotion",
                "pickup_id": "217",
                "dropoffs": []
            }
        ],
        "our_location_id": null
    },
    {
        "unified_location_id": 3199819611,
        "name": "Rhodes Downtown",
        "city": "Rhodes",
        "country": "Greece",
        "latitude": 36.373132,
        "longitude": 28.19235,
        "providers": [
            {
                "provider": "greenmotion",
                "pickup_id": "252",
                "dropoffs": []
            }
        ],
        "our_location_id": null
    },
    {
        "unified_location_id": 544519963,
        "name": "Rhodes Faliraki",
        "city": "Rhodes",
        "country": "Greece",
        "latitude": 36.373132,
        "longitude": 28.19235,
        "providers": [
            {
                "provider": "greenmotion",
                "pickup_id": "253",
                "dropoffs": []
            }
        ],
        "our_location_id": null
    },
    {
        "unified_location_id": 1042555043,
        "name": "Rhodes Ialysos",
        "city": "Rhodes",
        "country": "Greece",
        "latitude": 36.408422,
        "longitude": 28.1067,
        "providers": [
            {
                "provider": "greenmotion",
                "pickup_id": "254",
                "dropoffs": []
            }
        ],
        "our_location_id": null
    },
    {
        "unified_location_id": 1761684346,
        "name": "Rhodes Lindos",
        "city": "Rhodes",
        "country": "Greece",
        "latitude": 36.373132,
        "longitude": 28.19235,
        "providers": [
            {
                "provider": "greenmotion",
                "pickup_id": "257",
                "dropoffs": []
            }
        ],
        "our_location_id": null
    },
    {
        "unified_location_id": 69288616,
        "name": "Rhodes Port",
        "city": "Rhodes",
        "country": "Greece",
        "latitude": 36.373132,
        "longitude": 28.19235,
        "providers": [
            {
                "provider": "greenmotion",
                "pickup_id": "258",
                "dropoffs": []
            }
        ],
        "our_location_id": null
    },
    {
        "unified_location_id": 395485054,
        "name": "Samos Pythagorion",
        "city": "Samos",
        "country": "Greece",
        "latitude": 37.690505,
        "longitude": 26.938236,
        "providers": [
            {
                "provider": "greenmotion",
                "pickup_id": "333",
                "dropoffs": []
            }
        ],
        "our_location_id": null
    },
    {
        "unified_location_id": 4271511793,
        "name": "Samos Pythagorion Port",
        "city": "Samos",
        "country": "Greece",
        "latitude": 37.690505,
        "longitude": 26.938236,
        "providers": [
            {
                "provider": "greenmotion",
                "pickup_id": "334",
                "dropoffs": []
            }
        ],
        "our_location_id": null
    },
    {
        "unified_location_id": 152092186,
        "name": "Samos Vathy Port",
        "city": "Samos",
        "country": "Greece",
        "latitude": 37.690505,
        "longitude": 26.938236,
        "providers": [
            {
                "provider": "greenmotion",
                "pickup_id": "336",
                "dropoffs": []
            }
        ],
        "our_location_id": null
    },
    {
        "unified_location_id": 2251953188,
        "name": "Santorini Firostefani",
        "city": "Santorini",
        "country": "Greece",
        "latitude": 36.42099347178298,
        "longitude": 25.43197010015928,
        "providers": [
            {
                "provider": "greenmotion",
                "pickup_id": "61576",
                "dropoffs": []
            }
        ],
        "our_location_id": null
    },
    {
        "unified_location_id": 4231257863,
        "name": "Santorini New Port",
        "city": "Santorini",
        "country": "Greece",
        "latitude": 36.42098571983843,
        "longitude": 25.43196419567025,
        "providers": [
            {
                "provider": "greenmotion",
                "pickup_id": "61575",
                "dropoffs": []
            }
        ],
        "our_location_id": null
    },
    {
        "unified_location_id": 661704618,
        "name": "Skiathos Downtown",
        "city": "Skiathos",
        "country": "Greece",
        "latitude": 39.163798,
        "longitude": 23.491774,
        "providers": [
            {
                "provider": "greenmotion",
                "pickup_id": "382",
                "dropoffs": []
            }
        ],
        "our_location_id": null
    },
    {
        "unified_location_id": 2287470306,
        "name": "Skiathos Port",
        "city": "Skiathos",
        "country": "Greece",
        "latitude": 39.16258,
        "longitude": 23.490979,
        "providers": [
            {
                "provider": "greenmotion",
                "pickup_id": "391",
                "dropoffs": []
            }
        ],
        "our_location_id": null
    },
    {
        "unified_location_id": 2437359954,
        "name": "Skopelos Downtown",
        "city": "Skopelos",
        "country": "Greece",
        "latitude": 39.119613,
        "longitude": 23.730955,
        "providers": [
            {
                "provider": "greenmotion",
                "pickup_id": "383",
                "dropoffs": []
            }
        ],
        "our_location_id": null
    },
    {
        "unified_location_id": 2057516337,
        "name": "Skopelos Port",
        "city": "Skopelos",
        "country": "Greece",
        "latitude": 39.119466,
        "longitude": 23.730848,
        "providers": [
            {
                "provider": "greenmotion",
                "pickup_id": "392",
                "dropoffs": []
            }
        ],
        "our_location_id": null
    },
    {
        "unified_location_id": 2289552400,
        "name": "Volos Downtown",
        "city": "Volos",
        "country": "Greece",
        "latitude": 39.361813,
        "longitude": 22.93849,
        "providers": [
            {
                "provider": "greenmotion",
                "pickup_id": "385",
                "dropoffs": []
            }
        ],
        "our_location_id": null
    },
    {
        "unified_location_id": 90742583,
        "name": "Volos Port",
        "city": "Volos",
        "country": "Greece",
        "latitude": 39.359335,
        "longitude": 22.946041,
        "providers": [
            {
                "provider": "greenmotion",
                "pickup_id": "386",
                "dropoffs": []
            }
        ],
        "our_location_id": null
    },
    {
        "unified_location_id": 1962514124,
        "name": "Zakynthos Downtown",
        "city": "Zakynthos",
        "country": "Greece",
        "latitude": 37.777487,
        "longitude": 20.899115,
        "providers": [
            {
                "provider": "greenmotion",
                "pickup_id": "178",
                "dropoffs": []
            }
        ],
        "our_location_id": null
    },
    {
        "unified_location_id": 1228629845,
        "name": "Zakynthos Kalamaki",
        "city": "Zakynthos",
        "country": "Greece",
        "latitude": 37.742202,
        "longitude": 20.895795,
        "providers": [
            {
                "provider": "greenmotion",
                "pickup_id": "223",
                "dropoffs": []
            }
        ],
        "our_location_id": null
    },
    {
        "unified_location_id": 1699532271,
        "name": "Zakynthos Port (Lomvardou)",
        "city": "Zakynthos",
        "country": "Greece",
        "latitude": 37.777487,
        "longitude": 20.899115,
        "providers": [
            {
                "provider": "greenmotion",
                "pickup_id": "221",
                "dropoffs": []
            }
        ],
        "our_location_id": null
    },
    {
        "unified_location_id": 3846139667,
        "name": "Budapest Airport",
        "city": "Budapest",
        "country": "Hungary",
        "latitude": 47.433075253630534,
        "longitude": 19.26094556101923,
        "providers": [
            {
                "provider": "greenmotion",
                "pickup_id": "61199",
                "dropoffs": []
            },
            {
                "provider": "usave",
                "pickup_id": "61199",
                "dropoffs": []
            }
        ],
        "our_location_id": null
    },
    {
        "unified_location_id": 1543040318,
        "name": "Budapest City",
        "city": "Budapest",
        "country": "Hungary",
        "latitude": 47.481035558730426,
        "longitude": 19.125522243233632,
        "providers": [
            {
                "provider": "greenmotion",
                "pickup_id": "61325",
                "dropoffs": []
            },
            {
                "provider": "usave",
                "pickup_id": "61325",
                "dropoffs": []
            }
        ],
        "our_location_id": null
    },
    {
        "unified_location_id": 3273660148,
        "name": "Budapest Deak Ferenc Ter",
        "city": "",
        "country": "Hungary",
        "latitude": 47.49887708571224,
        "longitude": 19.05008745279418,
        "providers": [
            {
                "provider": "greenmotion",
                "pickup_id": "61731",
                "dropoffs": []
            },
            {
                "provider": "usave",
                "pickup_id": "61731",
                "dropoffs": []
            }
        ],
        "our_location_id": null
    },
    {
        "unified_location_id": 3770019091,
        "name": "Budapest Downtown",
        "city": "Budapest",
        "country": "Hungary",
        "latitude": 47.5015491,
        "longitude": 19.0731145,
        "providers": [
            {
                "provider": "greenmotion",
                "pickup_id": "61707",
                "dropoffs": []
            },
            {
                "provider": "usave",
                "pickup_id": "61707",
                "dropoffs": []
            }
        ],
        "our_location_id": null
    },
    {
        "unified_location_id": 1768666396,
        "name": "Keflavik International Airport",
        "city": "Keflavikurflugvollur",
        "country": "Iceland",
        "latitude": 64.01555698863433,
        "longitude": -22.57670390182198,
        "providers": [
            {
                "provider": "greenmotion",
                "pickup_id": "102",
                "dropoffs": []
            }
        ],
        "our_location_id": null
    },
    {
        "unified_location_id": 2674183251,
        "name": "Reykjavik Downtown",
        "city": "Reykjav\u00edk",
        "country": "Iceland",
        "latitude": 64.13188790570369,
        "longitude": -21.9169196915587,
        "providers": [
            {
                "provider": "greenmotion",
                "pickup_id": "163",
                "dropoffs": []
            }
        ],
        "our_location_id": null
    },
    {
        "unified_location_id": 550721563,
        "name": "Haifa Downtown",
        "city": "Haifa",
        "country": "Israel",
        "latitude": 32.78834338803086,
        "longitude": 35.038988544781105,
        "providers": [
            {
                "provider": "greenmotion",
                "pickup_id": "61549",
                "dropoffs": []
            },
            {
                "provider": "usave",
                "pickup_id": "61549",
                "dropoffs": []
            }
        ],
        "our_location_id": null
    },
    {
        "unified_location_id": 185957595,
        "name": "Jerusalem Downtown",
        "city": "Jerusalem",
        "country": "Israel",
        "latitude": 31.785353490179077,
        "longitude": 35.21013558713618,
        "providers": [
            {
                "provider": "greenmotion",
                "pickup_id": "61550",
                "dropoffs": []
            },
            {
                "provider": "usave",
                "pickup_id": "61550",
                "dropoffs": []
            }
        ],
        "our_location_id": null
    },
    {
        "unified_location_id": 2848649347,
        "name": "Netania Downtown",
        "city": "Netania",
        "country": "Israel",
        "latitude": 32.32918058377775,
        "longitude": 34.85005773130128,
        "providers": [
            {
                "provider": "greenmotion",
                "pickup_id": "61547",
                "dropoffs": []
            },
            {
                "provider": "usave",
                "pickup_id": "61547",
                "dropoffs": []
            }
        ],
        "our_location_id": null
    },
    {
        "unified_location_id": 3090640219,
        "name": "Tel Aviv Downtown",
        "city": "Tel Aviv",
        "country": "Israel",
        "latitude": 32.05166528236561,
        "longitude": 34.782967745412165,
        "providers": [
            {
                "provider": "greenmotion",
                "pickup_id": "61548",
                "dropoffs": []
            },
            {
                "provider": "usave",
                "pickup_id": "61548",
                "dropoffs": []
            }
        ],
        "our_location_id": null
    },
    {
        "unified_location_id": 1457998305,
        "name": "Brindisi Airport",
        "city": "Brindisi",
        "country": "Italy",
        "latitude": 40.65020427113049,
        "longitude": 17.911458439370392,
        "providers": [
            {
                "provider": "greenmotion",
                "pickup_id": "60515",
                "dropoffs": []
            }
        ],
        "our_location_id": null
    },
    {
        "unified_location_id": 2620148998,
        "name": "Milano Malpensa Airport",
        "city": "Lonate Pozzolo (VA)",
        "country": "Italy",
        "latitude": 45.58924420025599,
        "longitude": 8.736585882778357,
        "providers": [
            {
                "provider": "greenmotion",
                "pickup_id": "123",
                "dropoffs": []
            }
        ],
        "our_location_id": null
    },
    {
        "unified_location_id": 5659801,
        "name": "Napoli Airport",
        "city": "Napoli",
        "country": "Italy",
        "latitude": 40.874553,
        "longitude": 14.285428,
        "providers": [
            {
                "provider": "greenmotion",
                "pickup_id": "61500",
                "dropoffs": []
            }
        ],
        "our_location_id": null
    },
    {
        "unified_location_id": 1372355415,
        "name": "Palermo Airport",
        "city": "Cinisi PA",
        "country": "Italy",
        "latitude": 38.1651088,
        "longitude": 13.0922412,
        "providers": [
            {
                "provider": "greenmotion",
                "pickup_id": "291",
                "dropoffs": []
            },
            {
                "provider": "usave",
                "pickup_id": "61603",
                "dropoffs": []
            }
        ],
        "our_location_id": null
    },
    {
        "unified_location_id": 2395323180,
        "name": "Pisa Airport",
        "city": "Pisa",
        "country": "Italy",
        "latitude": 43.69798,
        "longitude": 10.40421,
        "providers": [
            {
                "provider": "greenmotion",
                "pickup_id": "114",
                "dropoffs": []
            }
        ],
        "our_location_id": null
    },
    {
        "unified_location_id": 1553082887,
        "name": "Rome Ciampino Airport",
        "city": "Roma",
        "country": "Italy",
        "latitude": 41.8340413211147,
        "longitude": 12.5961292349895,
        "providers": [
            {
                "provider": "greenmotion",
                "pickup_id": "292",
                "dropoffs": []
            },
            {
                "provider": "usave",
                "pickup_id": "61604",
                "dropoffs": []
            }
        ],
        "our_location_id": null
    },
    {
        "unified_location_id": 3088139204,
        "name": "Rome Fiumicino International Airport",
        "city": "Fiumicino (RM)",
        "country": "Italy",
        "latitude": 41.77185270661845,
        "longitude": 12.242315696712033,
        "providers": [
            {
                "provider": "greenmotion",
                "pickup_id": "157",
                "dropoffs": []
            }
        ],
        "our_location_id": null
    },
    {
        "unified_location_id": 2116035180,
        "name": "Firenze Downtown",
        "city": "Firenze",
        "country": "Italy",
        "latitude": 43.78017165694872,
        "longitude": 11.239708657671574,
        "providers": [
            {
                "provider": "greenmotion",
                "pickup_id": "61200",
                "dropoffs": []
            }
        ],
        "our_location_id": null
    },
    {
        "unified_location_id": 3185075743,
        "name": "Firenze Railway Station",
        "city": "Firenze",
        "country": "Italy",
        "latitude": 43.78017165694872,
        "longitude": 11.239708657671574,
        "providers": [
            {
                "provider": "greenmotion",
                "pickup_id": "61197",
                "dropoffs": []
            }
        ],
        "our_location_id": null
    },
    {
        "unified_location_id": 582604418,
        "name": "Napoli Afragola Railway Station",
        "city": "Napoli",
        "country": "Italy",
        "latitude": 40.874553,
        "longitude": 14.285428,
        "providers": [
            {
                "provider": "greenmotion",
                "pickup_id": "61501",
                "dropoffs": []
            }
        ],
        "our_location_id": null
    },
    {
        "unified_location_id": 1758338453,
        "name": "Napoli Centrale Railway Station",
        "city": "Napoli",
        "country": "Italy",
        "latitude": 40.854736,
        "longitude": 14.271103,
        "providers": [
            {
                "provider": "greenmotion",
                "pickup_id": "61602",
                "dropoffs": []
            }
        ],
        "our_location_id": null
    },
    {
        "unified_location_id": 2444270478,
        "name": "Palermo Downtown",
        "city": "Palermo",
        "country": "Italy",
        "latitude": 38.184798,
        "longitude": 13.298608,
        "providers": [
            {
                "provider": "greenmotion",
                "pickup_id": "165",
                "dropoffs": []
            }
        ],
        "our_location_id": null
    },
    {
        "unified_location_id": 4224160565,
        "name": "Queen Alia International Airport",
        "city": "Amman",
        "country": "Jordan",
        "latitude": 31.751030952393524,
        "longitude": 35.94089884973838,
        "providers": [
            {
                "provider": "greenmotion",
                "pickup_id": "121",
                "dropoffs": []
            },
            {
                "provider": "usave",
                "pickup_id": "121",
                "dropoffs": []
            }
        ],
        "our_location_id": null
    },
    {
        "unified_location_id": 392828939,
        "name": "Amman Mecca Street",
        "city": "Amman",
        "country": "Jordan",
        "latitude": 31.9684413716172,
        "longitude": 35.8799101456459,
        "providers": [
            {
                "provider": "greenmotion",
                "pickup_id": "61163",
                "dropoffs": []
            },
            {
                "provider": "usave",
                "pickup_id": "61163",
                "dropoffs": []
            }
        ],
        "our_location_id": null
    },
    {
        "unified_location_id": 4257587185,
        "name": "Diani Airport",
        "city": "Kwale county",
        "country": "Kenya",
        "latitude": -4.296447485899936,
        "longitude": 39.57219540650422,
        "providers": [
            {
                "provider": "greenmotion",
                "pickup_id": "61524",
                "dropoffs": []
            }
        ],
        "our_location_id": null
    },
    {
        "unified_location_id": 2019106732,
        "name": "Malindi International Airport",
        "city": "Malindi",
        "country": "Kenya",
        "latitude": -3.2311128264202122,
        "longitude": 40.09998075888046,
        "providers": [
            {
                "provider": "greenmotion",
                "pickup_id": "61649",
                "dropoffs": []
            }
        ],
        "our_location_id": null
    },
    {
        "unified_location_id": 1300574610,
        "name": "Mombasa Moi International Airport",
        "city": "Mombasa",
        "country": "Kenya",
        "latitude": -4.04,
        "longitude": 39.59,
        "providers": [
            {
                "provider": "greenmotion",
                "pickup_id": "61260",
                "dropoffs": []
            }
        ],
        "our_location_id": null
    },
    {
        "unified_location_id": 2298589797,
        "name": "Nairobi International Airport",
        "city": "Nairobi",
        "country": "Kenya",
        "latitude": -1.333731,
        "longitude": 36.927109,
        "providers": [
            {
                "provider": "greenmotion",
                "pickup_id": "59898",
                "dropoffs": []
            }
        ],
        "our_location_id": null
    },
    {
        "unified_location_id": 1743653774,
        "name": "Sgr Train Terminus, Mombasa",
        "city": "Mombasa,",
        "country": "Kenya",
        "latitude": -4.021696526186627,
        "longitude": 39.57916505669951,
        "providers": [
            {
                "provider": "greenmotion",
                "pickup_id": "61523",
                "dropoffs": []
            }
        ],
        "our_location_id": null
    },
    {
        "unified_location_id": 2651391764,
        "name": "SGR Train Terminus, Nairobi",
        "city": "Nairobi",
        "country": "Kenya",
        "latitude": -1.3541510756726236,
        "longitude": 36.89857443290718,
        "providers": [
            {
                "provider": "greenmotion",
                "pickup_id": "61521",
                "dropoffs": []
            }
        ],
        "our_location_id": null
    },
    {
        "unified_location_id": 2833457056,
        "name": "Prishtina International Airport",
        "city": "Sllatine",
        "country": "Kosovo",
        "latitude": 42.585163,
        "longitude": 21.027714,
        "providers": [
            {
                "provider": "greenmotion",
                "pickup_id": "60175",
                "dropoffs": []
            }
        ],
        "our_location_id": null
    },
    {
        "unified_location_id": 663032208,
        "name": "Riga Airport",
        "city": "Riga",
        "country": "Latvia",
        "latitude": 56.9227,
        "longitude": 23.9733,
        "providers": [
            {
                "provider": "greenmotion",
                "pickup_id": "181",
                "dropoffs": []
            },
            {
                "provider": "usave",
                "pickup_id": "181",
                "dropoffs": []
            }
        ],
        "our_location_id": null
    },
    {
        "unified_location_id": 3521180045,
        "name": "Riga Bus Station",
        "city": "Riga",
        "country": "Latvia",
        "latitude": 56.947243,
        "longitude": 24.105198,
        "providers": [
            {
                "provider": "greenmotion",
                "pickup_id": "183",
                "dropoffs": []
            },
            {
                "provider": "usave",
                "pickup_id": "183",
                "dropoffs": []
            }
        ],
        "our_location_id": null
    },
    {
        "unified_location_id": 2496038391,
        "name": "Riga Downtown",
        "city": "Riga",
        "country": "Latvia",
        "latitude": 56.947293,
        "longitude": 24.105189,
        "providers": [
            {
                "provider": "greenmotion",
                "pickup_id": "185",
                "dropoffs": []
            },
            {
                "provider": "usave",
                "pickup_id": "185",
                "dropoffs": []
            }
        ],
        "our_location_id": null
    },
    {
        "unified_location_id": 2269557086,
        "name": "Riga Sea Port",
        "city": "Riga",
        "country": "Latvia",
        "latitude": 56.955538,
        "longitude": 24.096793,
        "providers": [
            {
                "provider": "greenmotion",
                "pickup_id": "184",
                "dropoffs": []
            },
            {
                "provider": "usave",
                "pickup_id": "184",
                "dropoffs": []
            }
        ],
        "our_location_id": null
    },
    {
        "unified_location_id": 848770527,
        "name": "Riga Train Station",
        "city": "Riga",
        "country": "Latvia",
        "latitude": 56.947243,
        "longitude": 24.105198,
        "providers": [
            {
                "provider": "greenmotion",
                "pickup_id": "182",
                "dropoffs": []
            },
            {
                "provider": "usave",
                "pickup_id": "182",
                "dropoffs": []
            }
        ],
        "our_location_id": null
    },
    {
        "unified_location_id": 2044526299,
        "name": "Beirut Airport",
        "city": "Beirut",
        "country": "Lebanon",
        "latitude": 33.81999348163534,
        "longitude": 35.49139988703365,
        "providers": [
            {
                "provider": "greenmotion",
                "pickup_id": "59233",
                "dropoffs": []
            }
        ],
        "our_location_id": null
    },
    {
        "unified_location_id": 2681791042,
        "name": "Kaunas Airport",
        "city": "Karmelava",
        "country": "Lithuania",
        "latitude": 54.964592,
        "longitude": 24.074926,
        "providers": [
            {
                "provider": "greenmotion",
                "pickup_id": "176",
                "dropoffs": []
            },
            {
                "provider": "usave",
                "pickup_id": "176",
                "dropoffs": []
            }
        ],
        "our_location_id": null
    },
    {
        "unified_location_id": 1545859359,
        "name": "Palanga Airport",
        "city": "Palanga",
        "country": "Lithuania",
        "latitude": 55.971517,
        "longitude": 21.097178,
        "providers": [
            {
                "provider": "greenmotion",
                "pickup_id": "51213",
                "dropoffs": []
            },
            {
                "provider": "usave",
                "pickup_id": "51213",
                "dropoffs": []
            }
        ],
        "our_location_id": null
    },